[
  {
    "address": {
      "address": "Strada ACADEMIEI",
      "Anul_construirii": "1905",
      "Numar de apartamente": "0",
      "Anul Elaborarii Expertizei Tehnice": "1993",
      "Observatii": null
    },
    "lat": 44.4365171,
    "lng": 26.0993759,
    "constructionYear": "1905"
  },
  {
    "address": {
      "address": "Strada ACADEMIEI",
      "Anul_construirii": "1890",
      "Numar de apartamente": "10",
      "Anul Elaborarii Expertizei Tehnice": "1995",
      "Observatii": null
    },
    "lat": 44.4365171,
    "lng": 26.0993759,
    "constructionYear": "1890"
  },
  {
    "address": {
      "address": "Strada ACADEMIEI (Hotelul u0093MUNTENIAu0094)",
      "Anul_construirii": "1935",
      "Numar de apartamente": "0",
      "Anul Elaborarii Expertizei Tehnice": "2005",
      "Observatii": "Incadrare in clasa de risc seismic in anul 2005"
    },
    "lat": 44.4365171,
    "lng": 26.0993759,
    "constructionYear": "1935"
  },
  {
    "address": {
      "address": "Strada ACADEMIEI (imobil cu destinaTia de birouri u0096 PRIMARIA MUNICIPIULUI BUCURESTI)",
      "Anul_construirii": "1906",
      "Numar de apartamente": "0",
      "Anul Elaborarii Expertizei Tehnice": "2012",
      "Observatii": null
    },
    "lat": 44.4365171,
    "lng": 26.0993759,
    "constructionYear": "1906"
  },
  {
    "address": {
      "address": "Strada Alexandru Beldiman",
      "Anul_construirii": "1935-1947",
      "Numar de apartamente": "82",
      "Anul Elaborarii Expertizei Tehnice": "2023",
      "Observatii": "Reexpertizat tehnic in anul 2018"
    },
    "lat": 44.434226,
    "lng": 26.0973505,
    "constructionYear": "1935-1947"
  },
  {
    "address": {
      "address": "Bulevardul ALEXANDRU IOAN CUZA",
      "Anul_construirii": "1929",
      "Numar de apartamente": "6",
      "Anul Elaborarii Expertizei Tehnice": "1993",
      "Observatii": null
    },
    "lat": 44.4505499,
    "lng": 26.0773954,
    "constructionYear": "1929"
  },
  {
    "address": {
      "address": "PiaTa ALEXANDRU LAHOVARI",
      "Anul_construirii": "1935",
      "Numar de apartamente": "18",
      "Anul Elaborarii Expertizei Tehnice": "1997",
      "Observatii": null
    },
    "lat": 44.4453399,
    "lng": 26.1000766,
    "constructionYear": "1935"
  },
  {
    "address": {
      "address": "Strada ALEXANDRU XENOPOL",
      "Anul_construirii": "1940",
      "Numar de apartamente": "37",
      "Anul Elaborarii Expertizei Tehnice": "1994",
      "Observatii": null
    },
    "lat": 44.4435018,
    "lng": 26.1029532,
    "constructionYear": "1940"
  },
  {
    "address": {
      "address": "Strada ARCULUI",
      "Anul_construirii": "1932",
      "Numar de apartamente": "26",
      "Anul Elaborarii Expertizei Tehnice": "2000",
      "Observatii": null
    },
    "lat": 44.4384344,
    "lng": 26.1105069,
    "constructionYear": "1932"
  },
  {
    "address": {
      "address": "Strada ARMENEASCA",
      "Anul_construirii": "1933",
      "Numar de apartamente": "11",
      "Anul Elaborarii Expertizei Tehnice": "2023",
      "Observatii": null
    },
    "lat": 44.4385582,
    "lng": 26.1117741,
    "constructionYear": "1933"
  },
  {
    "address": {
      "address": "Strada ARMENEASCA",
      "Anul_construirii": "1935",
      "Numar de apartamente": "20",
      "Anul Elaborarii Expertizei Tehnice": "1999",
      "Observatii": null
    },
    "lat": 44.4385582,
    "lng": 26.1117741,
    "constructionYear": "1935"
  },
  {
    "address": {
      "address": "Strada ARMENEASCA",
      "Anul_construirii": "1935",
      "Numar de apartamente": "20",
      "Anul Elaborarii Expertizei Tehnice": "1999",
      "Observatii": null
    },
    "lat": 44.4385582,
    "lng": 26.1117741,
    "constructionYear": "1935"
  },
  {
    "address": {
      "address": "Strada AUREL VLAICU",
      "Anul_construirii": "1940",
      "Numar de apartamente": "11",
      "Anul Elaborarii Expertizei Tehnice": "1993",
      "Observatii": null
    },
    "lat": 44.4480082,
    "lng": 26.1057899,
    "constructionYear": "1940"
  },
  {
    "address": {
      "address": "Strada BAIA DE FIER",
      "Anul_construirii": "1885",
      "Numar de apartamente": "3",
      "Anul Elaborarii Expertizei Tehnice": "1993",
      "Observatii": null
    },
    "lat": 44.4302931,
    "lng": 26.1055932,
    "constructionYear": "1885"
  },
  {
    "address": {
      "address": "Strada BAIA DE FIER",
      "Anul_construirii": "1883",
      "Numar de apartamente": "4",
      "Anul Elaborarii Expertizei Tehnice": "1993",
      "Observatii": null
    },
    "lat": 44.4302931,
    "lng": 26.1055932,
    "constructionYear": "1883"
  },
  {
    "address": {
      "address": "Strada BAIA DE FIER",
      "Anul_construirii": "1922",
      "Numar de apartamente": "3",
      "Anul Elaborarii Expertizei Tehnice": "1995",
      "Observatii": null
    },
    "lat": 44.4302931,
    "lng": 26.1055932,
    "constructionYear": "1922"
  },
  {
    "address": {
      "address": "Strada BAIA DE FIER",
      "Anul_construirii": "1930",
      "Numar de apartamente": "11",
      "Anul Elaborarii Expertizei Tehnice": "1993",
      "Observatii": null
    },
    "lat": 44.4302931,
    "lng": 26.1055932,
    "constructionYear": "1930"
  },
  {
    "address": {
      "address": "Strada BAIA DE FIER",
      "Anul_construirii": "inainte de 1880",
      "Numar de apartamente": null,
      "Anul Elaborarii Expertizei Tehnice": "2019",
      "Observatii": "Reexpertizat tehnic in anul 2019"
    },
    "lat": 44.4302931,
    "lng": 26.1055932,
    "constructionYear": "inainte de 1880"
  },
  {
    "address": {
      "address": "Strada BALTAGULUI",
      "Anul_construirii": "1960",
      "Numar de apartamente": "12",
      "Anul Elaborarii Expertizei Tehnice": "2022",
      "Observatii": "Reincadrare in RsI in anul 2018 (Imobilul a mai fost incadrat in RsII de expertul tehnic atestat M.D.R.A.P. Dan POPESCU).  Actualizare expertizu0103 u00een anul 2022 expert atestat Andrei Dragou0219 Marcu."
    },
    "lat": 44.4223505,
    "lng": 26.0631812,
    "constructionYear": "1960"
  },
  {
    "address": {
      "address": "Strada BANIEI (fosta Strada SFANTUL GHEORGHE NOU)",
      "Anul_construirii": "1935",
      "Numar de apartamente": "10",
      "Anul Elaborarii Expertizei Tehnice": "2014",
      "Observatii": "Incadrare in clasa de risc seismic in anul 2014"
    },
    "lat": 44.432982,
    "lng": 26.1041909,
    "constructionYear": "1935"
  },
  {
    "address": {
      "address": "Strada BARATIEI",
      "Anul_construirii": "1910",
      "Numar de apartamente": "3",
      "Anul Elaborarii Expertizei Tehnice": "1993",
      "Observatii": null
    },
    "lat": 44.4301424,
    "lng": 26.1050199,
    "constructionYear": "1910"
  },
  {
    "address": {
      "address": "Strada BARATIEI",
      "Anul_construirii": "1900",
      "Numar de apartamente": "5",
      "Anul Elaborarii Expertizei Tehnice": "1993",
      "Observatii": null
    },
    "lat": 44.4301424,
    "lng": 26.1050199,
    "constructionYear": "1900"
  },
  {
    "address": {
      "address": "Strada BARATIEI",
      "Anul_construirii": "1885",
      "Numar de apartamente": "3",
      "Anul Elaborarii Expertizei Tehnice": "1993",
      "Observatii": null
    },
    "lat": 44.4301424,
    "lng": 26.1050199,
    "constructionYear": "1885"
  },
  {
    "address": {
      "address": "Strada BARATIEI",
      "Anul_construirii": "1920",
      "Numar de apartamente": "1",
      "Anul Elaborarii Expertizei Tehnice": "1993",
      "Observatii": null
    },
    "lat": 44.4301424,
    "lng": 26.1050199,
    "constructionYear": "1920"
  },
  {
    "address": {
      "address": "Strada BARATIEI",
      "Anul_construirii": "1935",
      "Numar de apartamente": "7",
      "Anul Elaborarii Expertizei Tehnice": "1993",
      "Observatii": null
    },
    "lat": 44.4301424,
    "lng": 26.1050199,
    "constructionYear": "1935"
  },
  {
    "address": {
      "address": "Strada BARATIEI",
      "Anul_construirii": "1824",
      "Numar de apartamente": "-",
      "Anul Elaborarii Expertizei Tehnice": "2019",
      "Observatii": "Incadrat in CLASA RsI DE RISC SEISMIC in anul 2019"
    },
    "lat": 44.4301424,
    "lng": 26.1050199,
    "constructionYear": "1824"
  },
  {
    "address": {
      "address": "Strada BATISTE",
      "Anul_construirii": "1933",
      "Numar de apartamente": "26",
      "Anul Elaborarii Expertizei Tehnice": "1993",
      "Observatii": null
    },
    "lat": 44.4388378,
    "lng": 26.1045617,
    "constructionYear": "1933"
  },
  {
    "address": {
      "address": "Strada BATISTE",
      "Anul_construirii": "1932u00f71934",
      "Numar de apartamente": "0",
      "Anul Elaborarii Expertizei Tehnice": "2015",
      "Observatii": null
    },
    "lat": 44.4388378,
    "lng": 26.1045617,
    "constructionYear": "1932u00f71934"
  },
  {
    "address": {
      "address": "Strada BIBESCU VODA nr. 24; corp A; sector 4",
      "Anul_construirii": "1929",
      "Numar de apartamente": "4",
      "Anul Elaborarii Expertizei Tehnice": "1994",
      "Observatii": null
    },
    "lat": 44.4249441,
    "lng": 26.1027841,
    "constructionYear": "1929"
  },
  {
    "address": {
      "address": "Strada BISERICA AMZEI",
      "Anul_construirii": "1935",
      "Numar de apartamente": "20",
      "Anul Elaborarii Expertizei Tehnice": "1997",
      "Observatii": null
    },
    "lat": 44.4448537,
    "lng": 26.0945221,
    "constructionYear": "1935"
  },
  {
    "address": {
      "address": "Strada BISERICA ENEI",
      "Anul_construirii": "1936",
      "Numar de apartamente": "26",
      "Anul Elaborarii Expertizei Tehnice": "1993",
      "Observatii": null
    },
    "lat": 44.436667,
    "lng": 26.1003359,
    "constructionYear": "1936"
  },
  {
    "address": {
      "address": "Strada BLANARI",
      "Anul_construirii": "1865",
      "Numar de apartamente": "0",
      "Anul Elaborarii Expertizei Tehnice": "2012",
      "Observatii": null
    },
    "lat": 44.432505,
    "lng": 26.1021888,
    "constructionYear": "1865"
  },
  {
    "address": {
      "address": "Strada BLANARI",
      "Anul_construirii": "1884",
      "Numar de apartamente": "0",
      "Anul Elaborarii Expertizei Tehnice": "1993",
      "Observatii": null
    },
    "lat": 44.432505,
    "lng": 26.1021888,
    "constructionYear": "1884"
  },
  {
    "address": {
      "address": "Strada BLANARI",
      "Anul_construirii": "1875",
      "Numar de apartamente": "1",
      "Anul Elaborarii Expertizei Tehnice": "2012",
      "Observatii": null
    },
    "lat": 44.432505,
    "lng": 26.1021888,
    "constructionYear": "1875"
  },
  {
    "address": {
      "address": "Strada BLANARI",
      "Anul_construirii": "1947",
      "Numar de apartamente": "14",
      "Anul Elaborarii Expertizei Tehnice": "2022",
      "Observatii": null
    },
    "lat": 44.432505,
    "lng": 26.1021888,
    "constructionYear": "1947"
  },
  {
    "address": {
      "address": "Strada BLANARI",
      "Anul_construirii": "1900",
      "Numar de apartamente": "4",
      "Anul Elaborarii Expertizei Tehnice": "2023",
      "Observatii": null
    },
    "lat": 44.432505,
    "lng": 26.1021888,
    "constructionYear": "1900"
  },
  {
    "address": {
      "address": "Strada BLANARI ",
      "Anul_construirii": "1934u00f71937",
      "Numar de apartamente": "40",
      "Anul Elaborarii Expertizei Tehnice": "2018",
      "Observatii": null
    },
    "lat": 44.432505,
    "lng": 26.1021888,
    "constructionYear": "1934u00f71937"
  },
  {
    "address": {
      "address": "Strada BLANARI (colT cu Strada BACANI)",
      "Anul_construirii": "1883",
      "Numar de apartamente": "28",
      "Anul Elaborarii Expertizei Tehnice": "1993",
      "Observatii": null
    },
    "lat": 46.32443199999999,
    "lng": 27.6801982,
    "constructionYear": "1883"
  },
  {
    "address": {
      "address": "Strada BOCSA",
      "Anul_construirii": "1932",
      "Numar de apartamente": "25",
      "Anul Elaborarii Expertizei Tehnice": "1995",
      "Observatii": null
    },
    "lat": 44.440694,
    "lng": 26.1103432,
    "constructionYear": "1932"
  },
  {
    "address": {
      "address": "Strada BOTEANU",
      "Anul_construirii": "1935 1936",
      "Numar de apartamente": "90",
      "Anul Elaborarii Expertizei Tehnice": "2020",
      "Observatii": null
    },
    "lat": 44.4398452,
    "lng": 26.0987748,
    "constructionYear": "1935 1936"
  },
  {
    "address": {
      "address": "Strada BRAZILIA",
      "Anul_construirii": "1930",
      "Numar de apartamente": "5",
      "Anul Elaborarii Expertizei Tehnice": "1993",
      "Observatii": null
    },
    "lat": 44.4552306,
    "lng": 26.0961831,
    "constructionYear": "1930"
  },
  {
    "address": {
      "address": "Strada BUZESTI",
      "Anul_construirii": "1930",
      "Numar de apartamente": "1",
      "Anul Elaborarii Expertizei Tehnice": "1994",
      "Observatii": null
    },
    "lat": 44.4488071,
    "lng": 26.08295,
    "constructionYear": "1930"
  },
  {
    "address": {
      "address": "Strada BUZESTI",
      "Anul_construirii": null,
      "Numar de apartamente": "3",
      "Anul Elaborarii Expertizei Tehnice": "2007",
      "Observatii": "Incadrare in clasa de risc seismic in anul 2007"
    },
    "lat": 44.4488071,
    "lng": 26.08295,
    "constructionYear": null
  },
  {
    "address": {
      "address": "Strada C. A. ROSETTI",
      "Anul_construirii": "1900",
      "Numar de apartamente": "4",
      "Anul Elaborarii Expertizei Tehnice": "1993",
      "Observatii": null
    },
    "lat": 44.440912,
    "lng": 26.1008533,
    "constructionYear": "1900"
  },
  {
    "address": {
      "address": "Strada C. A. ROSETTI",
      "Anul_construirii": "1927",
      "Numar de apartamente": "8",
      "Anul Elaborarii Expertizei Tehnice": "1993",
      "Observatii": null
    },
    "lat": 44.440912,
    "lng": 26.1008533,
    "constructionYear": "1927"
  },
  {
    "address": {
      "address": "Strada C. A. ROSETTI",
      "Anul_construirii": "1933",
      "Numar de apartamente": "18",
      "Anul Elaborarii Expertizei Tehnice": "2007",
      "Observatii": null
    },
    "lat": 44.440912,
    "lng": 26.1008533,
    "constructionYear": "1933"
  },
  {
    "address": {
      "address": "Strada C. A. ROSETTI",
      "Anul_construirii": "1933",
      "Numar de apartamente": "11",
      "Anul Elaborarii Expertizei Tehnice": "1994",
      "Observatii": null
    },
    "lat": 44.440912,
    "lng": 26.1008533,
    "constructionYear": "1933"
  },
  {
    "address": {
      "address": "Strada CADEREA BASTILIEI",
      "Anul_construirii": "1938",
      "Numar de apartamente": "41",
      "Anul Elaborarii Expertizei Tehnice": "1994",
      "Observatii": null
    },
    "lat": 44.4501884,
    "lng": 26.0960651,
    "constructionYear": "1938"
  },
  {
    "address": {
      "address": "Strada CADEREA BASTILIEI",
      "Anul_construirii": "1937",
      "Numar de apartamente": "7",
      "Anul Elaborarii Expertizei Tehnice": "2023",
      "Observatii": null
    },
    "lat": 44.4501884,
    "lng": 26.0960651,
    "constructionYear": "1937"
  },
  {
    "address": {
      "address": "Strada CAIMATEI",
      "Anul_construirii": "1936",
      "Numar de apartamente": "13",
      "Anul Elaborarii Expertizei Tehnice": "1998",
      "Observatii": null
    },
    "lat": 44.4361069,
    "lng": 26.1078526,
    "constructionYear": "1936"
  },
  {
    "address": {
      "address": "Calea CALARASILOR",
      "Anul_construirii": "1922",
      "Numar de apartamente": "3",
      "Anul Elaborarii Expertizei Tehnice": "1993",
      "Observatii": "Imobil propus pentru demolare"
    },
    "lat": 44.4324765,
    "lng": 26.1247788,
    "constructionYear": "1922"
  },
  {
    "address": {
      "address": "Strada CALUSEI",
      "Anul_construirii": "1937",
      "Numar de apartamente": "6",
      "Anul Elaborarii Expertizei Tehnice": "1997",
      "Observatii": null
    },
    "lat": 44.4434163,
    "lng": 26.1238172,
    "constructionYear": "1937"
  },
  {
    "address": {
      "address": "Strada CAMELIEI",
      "Anul_construirii": "1900",
      "Numar de apartamente": "4",
      "Anul Elaborarii Expertizei Tehnice": "1993",
      "Observatii": null
    },
    "lat": 44.4437987,
    "lng": 26.079563,
    "constructionYear": "1900"
  },
  {
    "address": {
      "address": "Strada CAMELIEI",
      "Anul_construirii": "1900",
      "Numar de apartamente": "4",
      "Anul Elaborarii Expertizei Tehnice": "1993",
      "Observatii": null
    },
    "lat": 44.4437987,
    "lng": 26.079563,
    "constructionYear": "1900"
  },
  {
    "address": {
      "address": "Strada CAMELIEI",
      "Anul_construirii": "1900",
      "Numar de apartamente": "5",
      "Anul Elaborarii Expertizei Tehnice": "1993",
      "Observatii": null
    },
    "lat": 44.4437987,
    "lng": 26.079563,
    "constructionYear": "1900"
  },
  {
    "address": {
      "address": "Strada CAMELIEI",
      "Anul_construirii": "1925",
      "Numar de apartamente": "7",
      "Anul Elaborarii Expertizei Tehnice": "1993",
      "Observatii": null
    },
    "lat": 44.4437987,
    "lng": 26.079563,
    "constructionYear": "1925"
  },
  {
    "address": {
      "address": "Strada CAMELIEI",
      "Anul_construirii": "1920-1935",
      "Numar de apartamente": "12",
      "Anul Elaborarii Expertizei Tehnice": "2016",
      "Observatii": "Propunerea expertului tehnic: demolarea cladirii."
    },
    "lat": 44.4437987,
    "lng": 26.079563,
    "constructionYear": "1920-1935"
  },
  {
    "address": {
      "address": "Bulevardul CAROL I",
      "Anul_construirii": "1910",
      "Numar de apartamente": "3",
      "Anul Elaborarii Expertizei Tehnice": "1993",
      "Observatii": null
    },
    "lat": 44.4368605,
    "lng": 26.1096884,
    "constructionYear": "1910"
  },
  {
    "address": {
      "address": "Bulevardul CAROL I",
      "Anul_construirii": "1934",
      "Numar de apartamente": "23",
      "Anul Elaborarii Expertizei Tehnice": "1993",
      "Observatii": null
    },
    "lat": 44.4368605,
    "lng": 26.1096884,
    "constructionYear": "1934"
  },
  {
    "address": {
      "address": "Bulevardul CAROL I",
      "Anul_construirii": "1929",
      "Numar de apartamente": "30",
      "Anul Elaborarii Expertizei Tehnice": "2001",
      "Observatii": null
    },
    "lat": 44.4368605,
    "lng": 26.1096884,
    "constructionYear": "1929"
  },
  {
    "address": {
      "address": "Bulevardul CAROL I",
      "Anul_construirii": "1937",
      "Numar de apartamente": "18",
      "Anul Elaborarii Expertizei Tehnice": "1993",
      "Observatii": null
    },
    "lat": 44.4368605,
    "lng": 26.1096884,
    "constructionYear": "1937"
  },
  {
    "address": {
      "address": "Bulevardul CAROL I",
      "Anul_construirii": "1939",
      "Numar de apartamente": "18",
      "Anul Elaborarii Expertizei Tehnice": "1994",
      "Observatii": null
    },
    "lat": 44.4368605,
    "lng": 26.1096884,
    "constructionYear": "1939"
  },
  {
    "address": {
      "address": "Bulevardul CAROL I",
      "Anul_construirii": "1890",
      "Numar de apartamente": "0",
      "Anul Elaborarii Expertizei Tehnice": "2015",
      "Observatii": "Sentinta civila nr.1677/2017 (Judecatoria Sectorului 2); Decizia definitiva nr.2947A/2017 (Tribunalul BUCURESTI - Sectia a V-a Civila)"
    },
    "lat": 44.4368605,
    "lng": 26.1096884,
    "constructionYear": "1890"
  },
  {
    "address": {
      "address": "Soseaua CHITILEI",
      "Anul_construirii": "1935",
      "Numar de apartamente": "2",
      "Anul Elaborarii Expertizei Tehnice": "1993",
      "Observatii": null
    },
    "lat": 44.486076,
    "lng": 26.0206445,
    "constructionYear": "1935"
  },
  {
    "address": {
      "address": "Strada COLTEI",
      "Anul_construirii": "1900",
      "Numar de apartamente": "5",
      "Anul Elaborarii Expertizei Tehnice": "1995",
      "Observatii": null
    },
    "lat": 44.4342031,
    "lng": 26.1054549,
    "constructionYear": "1900"
  },
  {
    "address": {
      "address": "Strada COLTEI",
      "Anul_construirii": "1915",
      "Numar de apartamente": "3",
      "Anul Elaborarii Expertizei Tehnice": "2023",
      "Observatii": null
    },
    "lat": 44.4342031,
    "lng": 26.1054549,
    "constructionYear": "1915"
  },
  {
    "address": {
      "address": "Strada CONSTANTIN BALACESCU",
      "Anul_construirii": "1890",
      "Numar de apartamente": "6",
      "Anul Elaborarii Expertizei Tehnice": "1993",
      "Observatii": null
    },
    "lat": 44.4446397,
    "lng": 26.072835,
    "constructionYear": "1890"
  },
  {
    "address": {
      "address": "Strada CONSTANTIN BALACESCU",
      "Anul_construirii": "1918",
      "Numar de apartamente": "4",
      "Anul Elaborarii Expertizei Tehnice": "1993",
      "Observatii": null
    },
    "lat": 44.4446397,
    "lng": 26.072835,
    "constructionYear": "1918"
  },
  {
    "address": {
      "address": "Strada CONSTANTINTIN SILVESTRI (fosta Strada SFINTII APOSTOLI)",
      "Anul_construirii": "1930",
      "Numar de apartamente": "20",
      "Anul Elaborarii Expertizei Tehnice": "1994",
      "Observatii": null
    },
    "lat": 44.4277407,
    "lng": 26.0968021,
    "constructionYear": "1930"
  },
  {
    "address": {
      "address": "Bulevardul CORNELIU COPOSU",
      "Anul_construirii": "10962",
      "Numar de apartamente": null,
      "Anul Elaborarii Expertizei Tehnice": "2019",
      "Observatii": null
    },
    "lat": 44.4302821,
    "lng": 26.1072551,
    "constructionYear": "10962"
  },
  {
    "address": {
      "address": "Strada COSTACHE NEGRI",
      "Anul_construirii": "1932",
      "Numar de apartamente": "3",
      "Anul Elaborarii Expertizei Tehnice": "2015",
      "Observatii": "Incadrare in clasa de risc seismic in anul 2015"
    },
    "lat": 44.4322826,
    "lng": 26.078671,
    "constructionYear": "1932"
  },
  {
    "address": {
      "address": "Strada D. I. MENDELEEV",
      "Anul_construirii": "1864",
      "Numar de apartamente": "2",
      "Anul Elaborarii Expertizei Tehnice": "1996",
      "Observatii": null
    },
    "lat": 44.4447118,
    "lng": 26.0965244,
    "constructionYear": "1864"
  },
  {
    "address": {
      "address": "Bulevardul DACIA",
      "Anul_construirii": "1930",
      "Numar de apartamente": "6",
      "Anul Elaborarii Expertizei Tehnice": "1997",
      "Observatii": null
    },
    "lat": 44.4465288,
    "lng": 26.1033575,
    "constructionYear": "1930"
  },
  {
    "address": {
      "address": "Bulevardul DACIA",
      "Anul_construirii": "1938",
      "Numar de apartamente": "17",
      "Anul Elaborarii Expertizei Tehnice": "2022",
      "Observatii": null
    },
    "lat": 44.4465288,
    "lng": 26.1033575,
    "constructionYear": "1938"
  },
  {
    "address": {
      "address": "Bulevardul DACIA",
      "Anul_construirii": "1936",
      "Numar de apartamente": "26",
      "Anul Elaborarii Expertizei Tehnice": "1993",
      "Observatii": null
    },
    "lat": 44.4465288,
    "lng": 26.1033575,
    "constructionYear": "1936"
  },
  {
    "address": {
      "address": "Strada DIANEI",
      "Anul_construirii": "1930",
      "Numar de apartamente": "12",
      "Anul Elaborarii Expertizei Tehnice": "2022",
      "Observatii": "Reexpertizat tehnic in anul 2019"
    },
    "lat": 44.4374324,
    "lng": 26.1063443,
    "constructionYear": "1930"
  },
  {
    "address": {
      "address": "Strada DIANEI",
      "Anul_construirii": "1940",
      "Numar de apartamente": "9",
      "Anul Elaborarii Expertizei Tehnice": "1993",
      "Observatii": null
    },
    "lat": 44.4374324,
    "lng": 26.1063443,
    "constructionYear": "1940"
  },
  {
    "address": {
      "address": "Strada DIMITRIE BOLINTINEANU",
      "Anul_construirii": "1936",
      "Numar de apartamente": "44",
      "Anul Elaborarii Expertizei Tehnice": "2023",
      "Observatii": null
    },
    "lat": 44.434952,
    "lng": 26.1058465,
    "constructionYear": "1936"
  },
  {
    "address": {
      "address": "Strada DIMITRIE ONCIUL",
      "Anul_construirii": "1936",
      "Numar de apartamente": "4",
      "Anul Elaborarii Expertizei Tehnice": "1993",
      "Observatii": null
    },
    "lat": 44.4406759,
    "lng": 26.1197074,
    "constructionYear": "1936"
  },
  {
    "address": {
      "address": "Strada DIMITRIE SALMEN",
      "Anul_construirii": "1933",
      "Numar de apartamente": "12",
      "Anul Elaborarii Expertizei Tehnice": "1993",
      "Observatii": null
    },
    "lat": 44.4423213,
    "lng": 26.1229509,
    "constructionYear": "1933"
  },
  {
    "address": {
      "address": "Strada DIONISIE LUPU",
      "Anul_construirii": "1937",
      "Numar de apartamente": "13",
      "Anul Elaborarii Expertizei Tehnice": "1994",
      "Observatii": null
    },
    "lat": 44.4433384,
    "lng": 26.1014638,
    "constructionYear": "1937"
  },
  {
    "address": {
      "address": "Strada DIONISIE LUPU",
      "Anul_construirii": "1936",
      "Numar de apartamente": "13",
      "Anul Elaborarii Expertizei Tehnice": "1993",
      "Observatii": null
    },
    "lat": 44.4433384,
    "lng": 26.1014638,
    "constructionYear": "1936"
  },
  {
    "address": {
      "address": "Strada DOAMNEI",
      "Anul_construirii": "1890",
      "Numar de apartamente": "26",
      "Anul Elaborarii Expertizei Tehnice": "2022",
      "Observatii": null
    },
    "lat": 44.4331966,
    "lng": 26.1006323,
    "constructionYear": "1890"
  },
  {
    "address": {
      "address": "Strada DOAMNEI",
      "Anul_construirii": "1934",
      "Numar de apartamente": "25",
      "Anul Elaborarii Expertizei Tehnice": "2022",
      "Observatii": null
    },
    "lat": 44.4331966,
    "lng": 26.1006323,
    "constructionYear": "1934"
  },
  {
    "address": {
      "address": "Strada DOINA",
      "Anul_construirii": "inainte de 1930",
      "Numar de apartamente": null,
      "Anul Elaborarii Expertizei Tehnice": "2019",
      "Observatii": null
    },
    "lat": 44.4096388,
    "lng": 26.0814089,
    "constructionYear": "inainte de 1930"
  },
  {
    "address": {
      "address": "Strada DOMNITA ANASTASIA",
      "Anul_construirii": "1890",
      "Numar de apartamente": "5",
      "Anul Elaborarii Expertizei Tehnice": "2022",
      "Observatii": "Imobil propus pentru demolare"
    },
    "lat": 44.4337262,
    "lng": 26.0953309,
    "constructionYear": "1890"
  },
  {
    "address": {
      "address": "Strada DROBETA",
      "Anul_construirii": "1946",
      "Numar de apartamente": "5",
      "Anul Elaborarii Expertizei Tehnice": "2002",
      "Observatii": null
    },
    "lat": 44.4470277,
    "lng": 26.1071274,
    "constructionYear": "1946"
  },
  {
    "address": {
      "address": "Strada EFORIEI",
      "Anul_construirii": "1940",
      "Numar de apartamente": "58",
      "Anul Elaborarii Expertizei Tehnice": "1996",
      "Observatii": null
    },
    "lat": 44.4338451,
    "lng": 26.0964887,
    "constructionYear": "1940"
  },
  {
    "address": {
      "address": "Strada ELENA CUZA",
      "Anul_construirii": "1910",
      "Numar de apartamente": "3",
      "Anul Elaborarii Expertizei Tehnice": "1993",
      "Observatii": null
    },
    "lat": 44.4166802,
    "lng": 26.1079906,
    "constructionYear": "1910"
  },
  {
    "address": {
      "address": "Strada EMANOIL BACALOGLU",
      "Anul_construirii": "1936",
      "Numar de apartamente": "C3- magazie dezafectata",
      "Anul Elaborarii Expertizei Tehnice": "2018",
      "Observatii": null
    },
    "lat": 44.4392824,
    "lng": 26.1055461,
    "constructionYear": "1936"
  },
  {
    "address": {
      "address": "Strada EPISCOPIEI",
      "Anul_construirii": "1930",
      "Numar de apartamente": "36",
      "Anul Elaborarii Expertizei Tehnice": "2020",
      "Observatii": null
    },
    "lat": 44.4414554,
    "lng": 26.0966276,
    "constructionYear": "1930"
  },
  {
    "address": {
      "address": "Strada EPISCOPUL CHESARIE",
      "Anul_construirii": "1890",
      "Numar de apartamente": "11",
      "Anul Elaborarii Expertizei Tehnice": "1993",
      "Observatii": null
    },
    "lat": 44.4212382,
    "lng": 26.0931207,
    "constructionYear": "1890"
  },
  {
    "address": {
      "address": "Strada EUGENIU CARADA (imobil cu destinaTia de birouri u0096 INSTITUTIA AVOCATUL POPORULUI)",
      "Anul_construirii": "1912",
      "Numar de apartamente": "0",
      "Anul Elaborarii Expertizei Tehnice": "2017",
      "Observatii": "Incadrare in clasa de risc seismic in anul 2017"
    },
    "lat": 44.4330089,
    "lng": 26.0990243,
    "constructionYear": "1912"
  },
  {
    "address": {
      "address": "Strada FELICIA RACOVITA",
      "Anul_construirii": "1900; 1939",
      "Numar de apartamente": "8",
      "Anul Elaborarii Expertizei Tehnice": "1995",
      "Observatii": null
    },
    "lat": 44.4323549,
    "lng": 26.064342,
    "constructionYear": "1900; 1939"
  },
  {
    "address": {
      "address": "Bulevardul FERDINAND I",
      "Anul_construirii": "1933",
      "Numar de apartamente": "8",
      "Anul Elaborarii Expertizei Tehnice": "1993",
      "Observatii": null
    },
    "lat": 44.4433793,
    "lng": 26.1284696,
    "constructionYear": "1933"
  },
  {
    "address": {
      "address": "Calea FLOREASCA",
      "Anul_construirii": "1936",
      "Numar de apartamente": "5",
      "Anul Elaborarii Expertizei Tehnice": "1993",
      "Observatii": null
    },
    "lat": 44.4665307,
    "lng": 26.1021931,
    "constructionYear": "1936"
  },
  {
    "address": {
      "address": "Strada FLUIERULUI",
      "Anul_construirii": "1934",
      "Numar de apartamente": "16",
      "Anul Elaborarii Expertizei Tehnice": "1993",
      "Observatii": null
    },
    "lat": 44.4420264,
    "lng": 26.1283904,
    "constructionYear": "1934"
  },
  {
    "address": {
      "address": "Strada FRANCEZA",
      "Anul_construirii": "1869",
      "Numar de apartamente": "4",
      "Anul Elaborarii Expertizei Tehnice": "1993",
      "Observatii": null
    },
    "lat": 44.4301768,
    "lng": 26.0997128,
    "constructionYear": "1869"
  },
  {
    "address": {
      "address": "Strada FRANCEZA",
      "Anul_construirii": "1870",
      "Numar de apartamente": "5",
      "Anul Elaborarii Expertizei Tehnice": "1993",
      "Observatii": null
    },
    "lat": 44.4301768,
    "lng": 26.0997128,
    "constructionYear": "1870"
  },
  {
    "address": {
      "address": "Strada FRANCEZA",
      "Anul_construirii": "1910",
      "Numar de apartamente": "45",
      "Anul Elaborarii Expertizei Tehnice": "1993",
      "Observatii": null
    },
    "lat": 44.4301768,
    "lng": 26.0997128,
    "constructionYear": "1910"
  },
  {
    "address": {
      "address": "Strada FRANCEZA",
      "Anul_construirii": "1869",
      "Numar de apartamente": "3",
      "Anul Elaborarii Expertizei Tehnice": "2013",
      "Observatii": "Incadrare in clasa de risc seismic in anul 2013"
    },
    "lat": 44.4301768,
    "lng": 26.0997128,
    "constructionYear": "1869"
  },
  {
    "address": {
      "address": "Strada FRANCEZA",
      "Anul_construirii": "1880",
      "Numar de apartamente": "6",
      "Anul Elaborarii Expertizei Tehnice": "1993",
      "Observatii": null
    },
    "lat": 44.4301768,
    "lng": 26.0997128,
    "constructionYear": "1880"
  },
  {
    "address": {
      "address": "Strada FRANCEZA",
      "Anul_construirii": "1870",
      "Numar de apartamente": "23",
      "Anul Elaborarii Expertizei Tehnice": "1993",
      "Observatii": null
    },
    "lat": 44.4301768,
    "lng": 26.0997128,
    "constructionYear": "1870"
  },
  {
    "address": {
      "address": "Strada FRANCEZA",
      "Anul_construirii": "aprox. 1875",
      "Numar de apartamente": null,
      "Anul Elaborarii Expertizei Tehnice": "2019",
      "Observatii": "Reincadrat in CLASA RsI DE RISC SEISMIC in anul 2019"
    },
    "lat": 44.4301768,
    "lng": 26.0997128,
    "constructionYear": "aprox. 1875"
  },
  {
    "address": {
      "address": "Strada FRANCEZA",
      "Anul_construirii": "1875",
      "Numar de apartamente": "5",
      "Anul Elaborarii Expertizei Tehnice": "1993",
      "Observatii": null
    },
    "lat": 44.4301768,
    "lng": 26.0997128,
    "constructionYear": "1875"
  },
  {
    "address": {
      "address": "Strada FRANCEZA",
      "Anul_construirii": "14614",
      "Numar de apartamente": null,
      "Anul Elaborarii Expertizei Tehnice": "2019",
      "Observatii": null
    },
    "lat": 44.4301768,
    "lng": 26.0997128,
    "constructionYear": "14614"
  },
  {
    "address": {
      "address": "Strada FRANCEZA / Strada HALELOR",
      "Anul_construirii": "1932-1934",
      "Numar de apartamente": "37",
      "Anul Elaborarii Expertizei Tehnice": "2023",
      "Observatii": "Reexpertizate tehnic in anul 2018;Reexpertizatu0103 u00een anul 2023."
    },
    "lat": 44.4291534,
    "lng": 26.1017682,
    "constructionYear": "1932-1934"
  },
  {
    "address": {
      "address": "Strada GABROVENI",
      "Anul_construirii": "1870",
      "Numar de apartamente": "10",
      "Anul Elaborarii Expertizei Tehnice": "2019",
      "Observatii": "Reincadrat in CLASA RsI DE RISC SEISMIC in anul 2019"
    },
    "lat": 44.4313014,
    "lng": 26.1022908,
    "constructionYear": "1870"
  },
  {
    "address": {
      "address": "Strada GABROVENI",
      "Anul_construirii": "1924",
      "Numar de apartamente": "1",
      "Anul Elaborarii Expertizei Tehnice": "1993",
      "Observatii": null
    },
    "lat": 44.4313014,
    "lng": 26.1022908,
    "constructionYear": "1924"
  },
  {
    "address": {
      "address": "Strada GABROVENI",
      "Anul_construirii": "1885",
      "Numar de apartamente": "0",
      "Anul Elaborarii Expertizei Tehnice": "2019",
      "Observatii": "Incadrat in CLASA RsI DE RISC SEISMIC in anul 2019"
    },
    "lat": 44.4313014,
    "lng": 26.1022908,
    "constructionYear": "1885"
  },
  {
    "address": {
      "address": "Strada GARII DE NORD",
      "Anul_construirii": "1959",
      "Numar de apartamente": "527",
      "Anul Elaborarii Expertizei Tehnice": "2023",
      "Observatii": "Corpul anexa este incadrat in clasa de risc seismic RsIII; scara 1 este incadrata in clasa de risc seismic RsII"
    },
    "lat": 44.4446135,
    "lng": 26.0783538,
    "constructionYear": "1959"
  },
  {
    "address": {
      "address": "Strada GEORGE ENESCU",
      "Anul_construirii": "1910",
      "Numar de apartamente": "3",
      "Anul Elaborarii Expertizei Tehnice": "2007/2010",
      "Observatii": "Incadrare in clasa de risc seismic in anii 2007 / 2010; corpurile B si C propuse pentru demolare"
    },
    "lat": 44.4428644,
    "lng": 26.0966371,
    "constructionYear": "1910"
  },
  {
    "address": {
      "address": "Strada GEORGE ENESCU",
      "Anul_construirii": "1932",
      "Numar de apartamente": "12",
      "Anul Elaborarii Expertizei Tehnice": "1999",
      "Observatii": null
    },
    "lat": 44.4428644,
    "lng": 26.0966371,
    "constructionYear": "1932"
  },
  {
    "address": {
      "address": "Bulevardul GHEORGHE MAGHERU",
      "Anul_construirii": "1936",
      "Numar de apartamente": "28",
      "Anul Elaborarii Expertizei Tehnice": "1995",
      "Observatii": null
    },
    "lat": 44.4437531,
    "lng": 26.0982232,
    "constructionYear": "1936"
  },
  {
    "address": {
      "address": "Bulevardul GHEORGHE MAGHERU (Cinematograful u0084STUDIOu0094)",
      "Anul_construirii": "1945",
      "Numar de apartamente": "24",
      "Anul Elaborarii Expertizei Tehnice": "1994",
      "Observatii": null
    },
    "lat": 44.4437531,
    "lng": 26.0982232,
    "constructionYear": "1945"
  },
  {
    "address": {
      "address": "Bulevardul GHEORGHE MAGHERU (Libraria u0084PAPIRUSu0094)",
      "Anul_construirii": "1935",
      "Numar de apartamente": "49",
      "Anul Elaborarii Expertizei Tehnice": "2023",
      "Observatii": "Reexpertizat tehnic in anul 2018;  Reexpertizat u00een anul 2023."
    },
    "lat": 44.4437531,
    "lng": 26.0982232,
    "constructionYear": "1935"
  },
  {
    "address": {
      "address": "Bulevardul GHEORGHE MAGHERU (Cinematograful PATRIA)",
      "Anul_construirii": "1929 1931",
      "Numar de apartamente": "54",
      "Anul Elaborarii Expertizei Tehnice": "2019",
      "Observatii": null
    },
    "lat": 44.4437531,
    "lng": 26.0982232,
    "constructionYear": "1929 1931"
  },
  {
    "address": {
      "address": "Bulevardul GHEORGHE MAGHERU (Garaj u0084CICLOPu0094)",
      "Anul_construirii": "1928",
      "Numar de apartamente": "0",
      "Anul Elaborarii Expertizei Tehnice": "2016",
      "Observatii": "Incadrare in clasa de risc seismic in anul 2016"
    },
    "lat": 44.4437531,
    "lng": 26.0982232,
    "constructionYear": "1928"
  },
  {
    "address": {
      "address": "Strada GINA PATRICHI (fosta Strada ORLANDO)",
      "Anul_construirii": "1906",
      "Numar de apartamente": "4",
      "Anul Elaborarii Expertizei Tehnice": "1993",
      "Observatii": null
    },
    "lat": 28.5009143,
    "lng": -81.2762961,
    "constructionYear": "1906"
  },
  {
    "address": {
      "address": "Strada GINA PATRICHI (fosta Strada ORLANDO)",
      "Anul_construirii": "1922",
      "Numar de apartamente": "8",
      "Anul Elaborarii Expertizei Tehnice": "1993",
      "Observatii": null
    },
    "lat": 28.5009143,
    "lng": -81.2762961,
    "constructionYear": "1922"
  },
  {
    "address": {
      "address": "Soseaua GIURGIULUI",
      "Anul_construirii": "1937",
      "Numar de apartamente": "8",
      "Anul Elaborarii Expertizei Tehnice": "1993",
      "Observatii": null
    },
    "lat": 44.3668814,
    "lng": 26.0884869,
    "constructionYear": "1937"
  },
  {
    "address": {
      "address": "Strada GRIGORE ALEXANDRESCU",
      "Anul_construirii": "1931",
      "Numar de apartamente": "9",
      "Anul Elaborarii Expertizei Tehnice": "1994",
      "Observatii": null
    },
    "lat": 44.4514332,
    "lng": 26.0926815,
    "constructionYear": "1931"
  },
  {
    "address": {
      "address": "Strada GRIGORE COBALCESCU",
      "Anul_construirii": "1903",
      "Numar de apartamente": "11",
      "Anul Elaborarii Expertizei Tehnice": "1994",
      "Observatii": null
    },
    "lat": 44.438462,
    "lng": 26.0844535,
    "constructionYear": "1903"
  },
  {
    "address": {
      "address": "Strada GRIGORE COBALCESCU",
      "Anul_construirii": "1895",
      "Numar de apartamente": "2",
      "Anul Elaborarii Expertizei Tehnice": "1993",
      "Observatii": null
    },
    "lat": 44.438462,
    "lng": 26.0844535,
    "constructionYear": "1895"
  },
  {
    "address": {
      "address": "Strada GRIGORE COBALCESCU",
      "Anul_construirii": "1905",
      "Numar de apartamente": "7",
      "Anul Elaborarii Expertizei Tehnice": "1993",
      "Observatii": null
    },
    "lat": 44.438462,
    "lng": 26.0844535,
    "constructionYear": "1905"
  },
  {
    "address": {
      "address": "Strada GRIGORE COBALCESCU",
      "Anul_construirii": "1907",
      "Numar de apartamente": "3",
      "Anul Elaborarii Expertizei Tehnice": "2016",
      "Observatii": "Incadrat In categoria de UrgenTA U1 (1993 -expert tehnic Armand Nefian); ReIncadrat In clasa de risc RS1 ( expert tehnic Armand Nefian); ReIncadrat In clasa de risc RSIII ( 2016 - expert tehnic Armand Nefian);"
    },
    "lat": 44.438462,
    "lng": 26.0844535,
    "constructionYear": "1907"
  },
  {
    "address": {
      "address": "Strada GRIGORE COBALCESCU",
      "Anul_construirii": "1935",
      "Numar de apartamente": "8",
      "Anul Elaborarii Expertizei Tehnice": "1994",
      "Observatii": null
    },
    "lat": 44.438462,
    "lng": 26.0844535,
    "constructionYear": "1935"
  },
  {
    "address": {
      "address": "Strada GRIGORE COBALCESCU",
      "Anul_construirii": "1929",
      "Numar de apartamente": "10",
      "Anul Elaborarii Expertizei Tehnice": "1995",
      "Observatii": null
    },
    "lat": 44.438462,
    "lng": 26.0844535,
    "constructionYear": "1929"
  },
  {
    "address": {
      "address": "Strada GRIGORE COBALCESCU",
      "Anul_construirii": "1927",
      "Numar de apartamente": "6",
      "Anul Elaborarii Expertizei Tehnice": "1993",
      "Observatii": null
    },
    "lat": 44.438462,
    "lng": 26.0844535,
    "constructionYear": "1927"
  },
  {
    "address": {
      "address": "Strada GRIGORE COBALCESCU",
      "Anul_construirii": "1930",
      "Numar de apartamente": "4",
      "Anul Elaborarii Expertizei Tehnice": "1993",
      "Observatii": null
    },
    "lat": 44.438462,
    "lng": 26.0844535,
    "constructionYear": "1930"
  },
  {
    "address": {
      "address": "Calea GRIVITEI",
      "Anul_construirii": "1930",
      "Numar de apartamente": "24",
      "Anul Elaborarii Expertizei Tehnice": "1995",
      "Observatii": null
    },
    "lat": 44.4571873,
    "lng": 26.060902,
    "constructionYear": "1930"
  },
  {
    "address": {
      "address": "Calea GRIVITEI",
      "Anul_construirii": "1940",
      "Numar de apartamente": "0",
      "Anul Elaborarii Expertizei Tehnice": "2014",
      "Observatii": "Incadrare in clasa de risc seismic in anul 2014"
    },
    "lat": 44.4571873,
    "lng": 26.060902,
    "constructionYear": "1940"
  },
  {
    "address": {
      "address": "Calea GRIVITEI",
      "Anul_construirii": "1904",
      "Numar de apartamente": "10",
      "Anul Elaborarii Expertizei Tehnice": "1993",
      "Observatii": null
    },
    "lat": 44.4571873,
    "lng": 26.060902,
    "constructionYear": "1904"
  },
  {
    "address": {
      "address": "Calea GRIVITEI",
      "Anul_construirii": "1934",
      "Numar de apartamente": "24",
      "Anul Elaborarii Expertizei Tehnice": "1996",
      "Observatii": null
    },
    "lat": 44.4571873,
    "lng": 26.060902,
    "constructionYear": "1934"
  },
  {
    "address": {
      "address": "Calea GRIVITEI",
      "Anul_construirii": "1915",
      "Numar de apartamente": "4",
      "Anul Elaborarii Expertizei Tehnice": "1993",
      "Observatii": null
    },
    "lat": 44.4571873,
    "lng": 26.060902,
    "constructionYear": "1915"
  },
  {
    "address": {
      "address": "Calea GRIVITEI",
      "Anul_construirii": "1900",
      "Numar de apartamente": "10",
      "Anul Elaborarii Expertizei Tehnice": "1993",
      "Observatii": null
    },
    "lat": 44.4571873,
    "lng": 26.060902,
    "constructionYear": "1900"
  },
  {
    "address": {
      "address": "Calea GRIVITEI",
      "Anul_construirii": "1960",
      "Numar de apartamente": "136",
      "Anul Elaborarii Expertizei Tehnice": "1996",
      "Observatii": null
    },
    "lat": 44.4571873,
    "lng": 26.060902,
    "constructionYear": "1960"
  },
  {
    "address": {
      "address": "Strada HALELOR",
      "Anul_construirii": "1898",
      "Numar de apartamente": "3",
      "Anul Elaborarii Expertizei Tehnice": "1993",
      "Observatii": null
    },
    "lat": 44.4291534,
    "lng": 26.1017682,
    "constructionYear": "1898"
  },
  {
    "address": {
      "address": "Bulevardul HRISTO BOTEV",
      "Anul_construirii": "1925",
      "Numar de apartamente": "6",
      "Anul Elaborarii Expertizei Tehnice": "1993",
      "Observatii": null
    },
    "lat": 44.4339031,
    "lng": 26.1080464,
    "constructionYear": "1925"
  },
  {
    "address": {
      "address": "Strada IACOB FELIX",
      "Anul_construirii": "1919",
      "Numar de apartamente": "7",
      "Anul Elaborarii Expertizei Tehnice": "1993",
      "Observatii": null
    },
    "lat": 44.4520428,
    "lng": 26.0810521,
    "constructionYear": "1919"
  },
  {
    "address": {
      "address": "Strada IACOB NEGRUZZI",
      "Anul_construirii": "1890",
      "Numar de apartamente": "7",
      "Anul Elaborarii Expertizei Tehnice": "1997",
      "Observatii": null
    },
    "lat": 44.4497234,
    "lng": 26.0743461,
    "constructionYear": "1890"
  },
  {
    "address": {
      "address": "Strada ILARIE CHENDI",
      "Anul_construirii": "1930",
      "Numar de apartamente": "6",
      "Anul Elaborarii Expertizei Tehnice": "1993",
      "Observatii": null
    },
    "lat": 44.4398681,
    "lng": 26.1322811,
    "constructionYear": "1930"
  },
  {
    "address": {
      "address": "Strada IOAN BUDAI DELEANU",
      "Anul_construirii": "1935",
      "Numar de apartamente": "8",
      "Anul Elaborarii Expertizei Tehnice": "1993",
      "Observatii": null
    },
    "lat": 46.7605744,
    "lng": 23.6105365,
    "constructionYear": "1935"
  },
  {
    "address": {
      "address": "Strada ION ANDREESCU",
      "Anul_construirii": "1940",
      "Numar de apartamente": "4",
      "Anul Elaborarii Expertizei Tehnice": "1993",
      "Observatii": null
    },
    "lat": 46.7741081,
    "lng": 23.5716632,
    "constructionYear": "1940"
  },
  {
    "address": {
      "address": "Strada ION ANDREESCU",
      "Anul_construirii": "1932",
      "Numar de apartamente": "4",
      "Anul Elaborarii Expertizei Tehnice": "1993",
      "Observatii": null
    },
    "lat": 46.7741081,
    "lng": 23.5716632,
    "constructionYear": "1932"
  },
  {
    "address": {
      "address": "Strada ION ANDREESCU",
      "Anul_construirii": "1932",
      "Numar de apartamente": "10",
      "Anul Elaborarii Expertizei Tehnice": "1993",
      "Observatii": null
    },
    "lat": 46.7741081,
    "lng": 23.5716632,
    "constructionYear": "1932"
  },
  {
    "address": {
      "address": "Strada ION BREZOIANU",
      "Anul_construirii": "1936",
      "Numar de apartamente": "29",
      "Anul Elaborarii Expertizei Tehnice": "1995",
      "Observatii": null
    },
    "lat": 44.4359747,
    "lng": 26.0947019,
    "constructionYear": "1936"
  },
  {
    "address": {
      "address": "Strada ION BREZOIANU",
      "Anul_construirii": "1935",
      "Numar de apartamente": "9",
      "Anul Elaborarii Expertizei Tehnice": "1995",
      "Observatii": null
    },
    "lat": 44.4359747,
    "lng": 26.0947019,
    "constructionYear": "1935"
  },
  {
    "address": {
      "address": "Strada ION BREZOIANU",
      "Anul_construirii": "1936",
      "Numar de apartamente": "12",
      "Anul Elaborarii Expertizei Tehnice": "1993",
      "Observatii": null
    },
    "lat": 44.4359747,
    "lng": 26.0947019,
    "constructionYear": "1936"
  },
  {
    "address": {
      "address": "Strada ION BREZOIANU",
      "Anul_construirii": "1948",
      "Numar de apartamente": "31",
      "Anul Elaborarii Expertizei Tehnice": "2011",
      "Observatii": null
    },
    "lat": 44.4359747,
    "lng": 26.0947019,
    "constructionYear": "1948"
  },
  {
    "address": {
      "address": "Strada ION CAMPINEANU",
      "Anul_construirii": "1937",
      "Numar de apartamente": "17",
      "Anul Elaborarii Expertizei Tehnice": "1995",
      "Observatii": "CONSOLIDAT PARTIAL !"
    },
    "lat": 44.4372377,
    "lng": 26.097647,
    "constructionYear": "1937"
  },
  {
    "address": {
      "address": "Strada ION CAMPINEANU",
      "Anul_construirii": "1925",
      "Numar de apartamente": "18",
      "Anul Elaborarii Expertizei Tehnice": "2007",
      "Observatii": null
    },
    "lat": 44.4372377,
    "lng": 26.097647,
    "constructionYear": "1925"
  },
  {
    "address": {
      "address": "Strada ION CAMPINEANU",
      "Anul_construirii": "1938",
      "Numar de apartamente": "59",
      "Anul Elaborarii Expertizei Tehnice": "1996",
      "Observatii": null
    },
    "lat": 44.4372377,
    "lng": 26.097647,
    "constructionYear": "1938"
  },
  {
    "address": {
      "address": "Strada ION GHICA ",
      "Anul_construirii": "1938",
      "Numar de apartamente": "53",
      "Anul Elaborarii Expertizei Tehnice": "1993",
      "Observatii": null
    },
    "lat": 44.4339865,
    "lng": 26.101483,
    "constructionYear": "1938"
  },
  {
    "address": {
      "address": "Strada ION LUCA CARAGIALE",
      "Anul_construirii": "1933",
      "Numar de apartamente": "11",
      "Anul Elaborarii Expertizei Tehnice": "1993",
      "Observatii": null
    },
    "lat": 44.4408268,
    "lng": 26.1058654,
    "constructionYear": "1933"
  },
  {
    "address": {
      "address": "Intrarea ITALIANA",
      "Anul_construirii": "1932",
      "Numar de apartamente": "4",
      "Anul Elaborarii Expertizei Tehnice": "1993",
      "Observatii": null
    },
    "lat": 44.4374951,
    "lng": 26.1095582,
    "constructionYear": "1932"
  },
  {
    "address": {
      "address": "Strada IVO ANDRIC",
      "Anul_construirii": "1910",
      "Numar de apartamente": "20",
      "Anul Elaborarii Expertizei Tehnice": "2023",
      "Observatii": "Incadrare in clasa de risc seismic in anul 2012"
    },
    "lat": 44.4345584,
    "lng": 26.106973,
    "constructionYear": "1910"
  },
  {
    "address": {
      "address": "Strada JEAN LOUIS CALDERON",
      "Anul_construirii": "1940",
      "Numar de apartamente": "10",
      "Anul Elaborarii Expertizei Tehnice": "1993",
      "Observatii": null
    },
    "lat": 44.4392899,
    "lng": 26.1050318,
    "constructionYear": "1940"
  },
  {
    "address": {
      "address": "Strada JEAN LOUIS CALDERON",
      "Anul_construirii": "1930",
      "Numar de apartamente": "34",
      "Anul Elaborarii Expertizei Tehnice": "1993",
      "Observatii": null
    },
    "lat": 44.4392899,
    "lng": 26.1050318,
    "constructionYear": "1930"
  },
  {
    "address": {
      "address": "Strada JEAN LOUIS CALDERON",
      "Anul_construirii": "1935",
      "Numar de apartamente": "19",
      "Anul Elaborarii Expertizei Tehnice": "1993",
      "Observatii": "CONSOLIDAT PARTIAL ! Obiectiv de investitii preluat de AMCCRS de la Directia Generala Investitii (P.M.B.) pentru finalizarea executiei lucrarilor de consolidare."
    },
    "lat": 44.4392899,
    "lng": 26.1050318,
    "constructionYear": "1935"
  },
  {
    "address": {
      "address": "Strada JEAN LOUIS CALDERON",
      "Anul_construirii": "1930",
      "Numar de apartamente": "13",
      "Anul Elaborarii Expertizei Tehnice": "1993",
      "Observatii": null
    },
    "lat": 44.4392899,
    "lng": 26.1050318,
    "constructionYear": "1930"
  },
  {
    "address": {
      "address": "Strada JEAN LOUIS CALDERON (u0084TEATRUL FOARTE MICu0094)",
      "Anul_construirii": "1910",
      "Numar de apartamente": "22",
      "Anul Elaborarii Expertizei Tehnice": "1993",
      "Observatii": null
    },
    "lat": 44.4392899,
    "lng": 26.1050318,
    "constructionYear": "1910"
  },
  {
    "address": {
      "address": "Strada JOSEPH LISTER",
      "Anul_construirii": "1932",
      "Numar de apartamente": "4",
      "Anul Elaborarii Expertizei Tehnice": "1997",
      "Observatii": null
    },
    "lat": 44.4306656,
    "lng": 26.0753216,
    "constructionYear": "1932"
  },
  {
    "address": {
      "address": "Strada JULES MICHELET",
      "Anul_construirii": "1937",
      "Numar de apartamente": "17",
      "Anul Elaborarii Expertizei Tehnice": "1996",
      "Observatii": null
    },
    "lat": 44.4440629,
    "lng": 26.0998111,
    "constructionYear": "1937"
  },
  {
    "address": {
      "address": "Strada JUSTITIEI",
      "Anul_construirii": "1920",
      "Numar de apartamente": "9",
      "Anul Elaborarii Expertizei Tehnice": "1993",
      "Observatii": null
    },
    "lat": 44.4242272,
    "lng": 26.0939735,
    "constructionYear": "1920"
  },
  {
    "address": {
      "address": "Strada LABIRINT",
      "Anul_construirii": "1930",
      "Numar de apartamente": "2",
      "Anul Elaborarii Expertizei Tehnice": "1993",
      "Observatii": null
    },
    "lat": 44.4306464,
    "lng": 26.1236188,
    "constructionYear": "1930"
  },
  {
    "address": {
      "address": "Bulevardul LASCAR CATARGIU",
      "Anul_construirii": "1910",
      "Numar de apartamente": "8",
      "Anul Elaborarii Expertizei Tehnice": "2017",
      "Observatii": null
    },
    "lat": 44.4492952,
    "lng": 26.0919365,
    "constructionYear": "1910"
  },
  {
    "address": {
      "address": "Strada LEONIDA VARNALI",
      "Anul_construirii": "1913",
      "Numar de apartamente": "2",
      "Anul Elaborarii Expertizei Tehnice": "1997",
      "Observatii": null
    },
    "lat": 44.449485,
    "lng": 26.0800774,
    "constructionYear": "1913"
  },
  {
    "address": {
      "address": "Strada LIPSCANI",
      "Anul_construirii": "1898",
      "Numar de apartamente": "44",
      "Anul Elaborarii Expertizei Tehnice": "1993",
      "Observatii": null
    },
    "lat": 44.4320399,
    "lng": 26.0997326,
    "constructionYear": "1898"
  },
  {
    "address": {
      "address": "Strada LIPSCANI",
      "Anul_construirii": "1884",
      "Numar de apartamente": "24",
      "Anul Elaborarii Expertizei Tehnice": "1993",
      "Observatii": null
    },
    "lat": 44.4320399,
    "lng": 26.0997326,
    "constructionYear": "1884"
  },
  {
    "address": {
      "address": "Strada LIPSCANI",
      "Anul_construirii": "1934",
      "Numar de apartamente": "5",
      "Anul Elaborarii Expertizei Tehnice": "2023",
      "Observatii": null
    },
    "lat": 44.4320399,
    "lng": 26.0997326,
    "constructionYear": "1934"
  },
  {
    "address": {
      "address": "Strada LIPSCANI",
      "Anul_construirii": "1934",
      "Numar de apartamente": "2",
      "Anul Elaborarii Expertizei Tehnice": "1993",
      "Observatii": null
    },
    "lat": 44.4320399,
    "lng": 26.0997326,
    "constructionYear": "1934"
  },
  {
    "address": {
      "address": "Strada LIPSCANI ",
      "Anul_construirii": "1880",
      "Numar de apartamente": "2",
      "Anul Elaborarii Expertizei Tehnice": "1993",
      "Observatii": null
    },
    "lat": 44.4320399,
    "lng": 26.0997326,
    "constructionYear": "1880"
  },
  {
    "address": {
      "address": "Strada LIPSCANI",
      "Anul_construirii": "1880",
      "Numar de apartamente": "2",
      "Anul Elaborarii Expertizei Tehnice": "1993",
      "Observatii": null
    },
    "lat": 44.4320399,
    "lng": 26.0997326,
    "constructionYear": "1880"
  },
  {
    "address": {
      "address": "Strada LIPSCANI",
      "Anul_construirii": "1890",
      "Numar de apartamente": "1",
      "Anul Elaborarii Expertizei Tehnice": "1993",
      "Observatii": null
    },
    "lat": 44.4320399,
    "lng": 26.0997326,
    "constructionYear": "1890"
  },
  {
    "address": {
      "address": "Strada LIPSCANI",
      "Anul_construirii": "1894",
      "Numar de apartamente": "2",
      "Anul Elaborarii Expertizei Tehnice": "1993",
      "Observatii": null
    },
    "lat": 44.4320399,
    "lng": 26.0997326,
    "constructionYear": "1894"
  },
  {
    "address": {
      "address": "Strada LIPSCANI",
      "Anul_construirii": "1930",
      "Numar de apartamente": "16",
      "Anul Elaborarii Expertizei Tehnice": "1993",
      "Observatii": null
    },
    "lat": 44.4320399,
    "lng": 26.0997326,
    "constructionYear": "1930"
  },
  {
    "address": {
      "address": "Strada LIPSCANI",
      "Anul_construirii": "perioada interbelica",
      "Numar de apartamente": null,
      "Anul Elaborarii Expertizei Tehnice": "2019",
      "Observatii": null
    },
    "lat": 44.4320399,
    "lng": 26.0997326,
    "constructionYear": "perioada interbelica"
  },
  {
    "address": {
      "address": "Strada LIPSCANI",
      "Anul_construirii": "1900",
      "Numar de apartamente": null,
      "Anul Elaborarii Expertizei Tehnice": "2019",
      "Observatii": null
    },
    "lat": 44.4320399,
    "lng": 26.0997326,
    "constructionYear": "1900"
  },
  {
    "address": {
      "address": "Strada LIPSCANI",
      "Anul_construirii": "1930 / 1970",
      "Numar de apartamente": null,
      "Anul Elaborarii Expertizei Tehnice": "2019",
      "Observatii": null
    },
    "lat": 44.4320399,
    "lng": 26.0997326,
    "constructionYear": "1930 / 1970"
  },
  {
    "address": {
      "address": "Strada LIPSCANI (Libraria u0084GEORGE COSBUCu0094)",
      "Anul_construirii": "1884",
      "Numar de apartamente": "1",
      "Anul Elaborarii Expertizei Tehnice": "1993",
      "Observatii": null
    },
    "lat": 44.4320399,
    "lng": 26.0997326,
    "constructionYear": "1884"
  },
  {
    "address": {
      "address": "Strada LIZEANU",
      "Anul_construirii": "1910",
      "Numar de apartamente": "0",
      "Anul Elaborarii Expertizei Tehnice": "1993",
      "Observatii": null
    },
    "lat": 44.4536923,
    "lng": 26.1206476,
    "constructionYear": "1910"
  },
  {
    "address": {
      "address": "Strada LIZEANU",
      "Anul_construirii": "1930",
      "Numar de apartamente": "7",
      "Anul Elaborarii Expertizei Tehnice": "1993",
      "Observatii": null
    },
    "lat": 44.4536923,
    "lng": 26.1206476,
    "constructionYear": "1930"
  },
  {
    "address": {
      "address": "Strada LOGOFATUL LUCA STROICI",
      "Anul_construirii": "1949",
      "Numar de apartamente": "17",
      "Anul Elaborarii Expertizei Tehnice": "1993",
      "Observatii": null
    },
    "lat": 44.4422762,
    "lng": 26.111315,
    "constructionYear": "1949"
  },
  {
    "address": {
      "address": "Strada LOGOFATUL LUCA STROICI",
      "Anul_construirii": "1935",
      "Numar de apartamente": "6",
      "Anul Elaborarii Expertizei Tehnice": "1993",
      "Observatii": null
    },
    "lat": 44.4422762,
    "lng": 26.111315,
    "constructionYear": "1935"
  },
  {
    "address": {
      "address": "Strada LUNEI",
      "Anul_construirii": "1934",
      "Numar de apartamente": "3",
      "Anul Elaborarii Expertizei Tehnice": "1993",
      "Observatii": null
    },
    "lat": 44.437644,
    "lng": 26.115512,
    "constructionYear": "1934"
  },
  {
    "address": {
      "address": "Strada LUNEI",
      "Anul_construirii": "1929",
      "Numar de apartamente": "3",
      "Anul Elaborarii Expertizei Tehnice": "1993",
      "Observatii": null
    },
    "lat": 44.437644,
    "lng": 26.115512,
    "constructionYear": "1929"
  },
  {
    "address": {
      "address": "Strada MANTULEASA",
      "Anul_construirii": "1932",
      "Numar de apartamente": "30",
      "Anul Elaborarii Expertizei Tehnice": "1993",
      "Observatii": null
    },
    "lat": 44.4353601,
    "lng": 26.1130686,
    "constructionYear": "1932"
  },
  {
    "address": {
      "address": "Strada MARIA ROSETTI",
      "Anul_construirii": "1946",
      "Numar de apartamente": "34",
      "Anul Elaborarii Expertizei Tehnice": "2023",
      "Observatii": null
    },
    "lat": 44.4422562,
    "lng": 26.1094982,
    "constructionYear": "1946"
  },
  {
    "address": {
      "address": "Strada MARIA ROSETTI",
      "Anul_construirii": "1914",
      "Numar de apartamente": "7",
      "Anul Elaborarii Expertizei Tehnice": "1997",
      "Observatii": null
    },
    "lat": 44.4422562,
    "lng": 26.1094982,
    "constructionYear": "1914"
  },
  {
    "address": {
      "address": "Strada MATASARI",
      "Anul_construirii": "1930",
      "Numar de apartamente": "4",
      "Anul Elaborarii Expertizei Tehnice": "1993",
      "Observatii": null
    },
    "lat": 44.4402957,
    "lng": 26.1286651,
    "constructionYear": "1930"
  },
  {
    "address": {
      "address": "Strada MATASARI",
      "Anul_construirii": "inceputul sec. XX",
      "Numar de apartamente": null,
      "Anul Elaborarii Expertizei Tehnice": "2019",
      "Observatii": null
    },
    "lat": 44.4402957,
    "lng": 26.1286651,
    "constructionYear": "inceputul sec. XX"
  },
  {
    "address": {
      "address": "Strada MATEI BASARAB",
      "Anul_construirii": "1930",
      "Numar de apartamente": null,
      "Anul Elaborarii Expertizei Tehnice": "1993",
      "Observatii": null
    },
    "lat": 44.4304193,
    "lng": 26.1209366,
    "constructionYear": "1930"
  },
  {
    "address": {
      "address": "Strada MATEI VOIEVOD",
      "Anul_construirii": "1940",
      "Numar de apartamente": "3",
      "Anul Elaborarii Expertizei Tehnice": "1993",
      "Observatii": null
    },
    "lat": 44.4375538,
    "lng": 26.1289132,
    "constructionYear": "1940"
  },
  {
    "address": {
      "address": "Strada MIHAI EMINESCU",
      "Anul_construirii": "1928",
      "Numar de apartamente": "9",
      "Anul Elaborarii Expertizei Tehnice": "1993",
      "Observatii": null
    },
    "lat": 44.4470693,
    "lng": 26.1098032,
    "constructionYear": "1928"
  },
  {
    "address": {
      "address": "Strada MIHAI EMINESCU",
      "Anul_construirii": "1933",
      "Numar de apartamente": "6",
      "Anul Elaborarii Expertizei Tehnice": "1995",
      "Observatii": null
    },
    "lat": 44.4470693,
    "lng": 26.1098032,
    "constructionYear": "1933"
  },
  {
    "address": {
      "address": "Strada MIHAI EMINESCU",
      "Anul_construirii": "1895",
      "Numar de apartamente": "7",
      "Anul Elaborarii Expertizei Tehnice": "2022",
      "Observatii": null
    },
    "lat": 44.4470693,
    "lng": 26.1098032,
    "constructionYear": "1895"
  },
  {
    "address": {
      "address": "Strada MIHAI VODA",
      "Anul_construirii": "1935",
      "Numar de apartamente": "14",
      "Anul Elaborarii Expertizei Tehnice": "2022",
      "Observatii": "Reexpertizat tehnic in anul 2019"
    },
    "lat": 44.4326096,
    "lng": 26.0946925,
    "constructionYear": "1935"
  },
  {
    "address": {
      "address": "Strada MIHAI VODA",
      "Anul_construirii": "1914",
      "Numar de apartamente": "15",
      "Anul Elaborarii Expertizei Tehnice": "1997",
      "Observatii": null
    },
    "lat": 44.4326096,
    "lng": 26.0946925,
    "constructionYear": "1914"
  },
  {
    "address": {
      "address": "Bulevardul MIHAIL KOGALNICEANU",
      "Anul_construirii": "1920",
      "Numar de apartamente": "8",
      "Anul Elaborarii Expertizei Tehnice": "1993",
      "Observatii": null
    },
    "lat": 44.4344856,
    "lng": 26.0837491,
    "constructionYear": "1920"
  },
  {
    "address": {
      "address": "Bulevardul MIHAIL KOGALNICEANU",
      "Anul_construirii": "1890",
      "Numar de apartamente": "10",
      "Anul Elaborarii Expertizei Tehnice": "1996",
      "Observatii": null
    },
    "lat": 44.4344856,
    "lng": 26.0837491,
    "constructionYear": "1890"
  },
  {
    "address": {
      "address": "Bulevardul MIHAIL KOGALNICEANU",
      "Anul_construirii": "1935",
      "Numar de apartamente": "22",
      "Anul Elaborarii Expertizei Tehnice": "2011",
      "Observatii": "Incadrare in clasa de risc seismic in anul 2011"
    },
    "lat": 44.4344856,
    "lng": 26.0837491,
    "constructionYear": "1935"
  },
  {
    "address": {
      "address": "Bulevardul MIHAIL KOGALNICEANU",
      "Anul_construirii": "1922",
      "Numar de apartamente": "37",
      "Anul Elaborarii Expertizei Tehnice": "1993",
      "Observatii": null
    },
    "lat": 44.4344856,
    "lng": 26.0837491,
    "constructionYear": "1922"
  },
  {
    "address": {
      "address": "Bulevardul MIHAIL KOGALNICEANU",
      "Anul_construirii": "1937",
      "Numar de apartamente": "16",
      "Anul Elaborarii Expertizei Tehnice": "1998",
      "Observatii": null
    },
    "lat": 44.4344856,
    "lng": 26.0837491,
    "constructionYear": "1937"
  },
  {
    "address": {
      "address": "Bulevardul MIHAIL KOGALNICEANU",
      "Anul_construirii": "1938",
      "Numar de apartamente": "83",
      "Anul Elaborarii Expertizei Tehnice": "1998",
      "Observatii": null
    },
    "lat": 44.4344856,
    "lng": 26.0837491,
    "constructionYear": "1938"
  },
  {
    "address": {
      "address": "Bulevardul MIHAIL KOGALNICEANU",
      "Anul_construirii": "1929",
      "Numar de apartamente": "43",
      "Anul Elaborarii Expertizei Tehnice": "1993",
      "Observatii": null
    },
    "lat": 44.4344856,
    "lng": 26.0837491,
    "constructionYear": "1929"
  },
  {
    "address": {
      "address": "Strada MIHAIL MOXA",
      "Anul_construirii": "1890",
      "Numar de apartamente": "0",
      "Anul Elaborarii Expertizei Tehnice": "1993",
      "Observatii": null
    },
    "lat": 44.4464876,
    "lng": 26.0889881,
    "constructionYear": "1890"
  },
  {
    "address": {
      "address": "Strada MIHAIL MOXA",
      "Anul_construirii": "1880",
      "Numar de apartamente": "0",
      "Anul Elaborarii Expertizei Tehnice": "1993",
      "Observatii": null
    },
    "lat": 44.4464876,
    "lng": 26.0889881,
    "constructionYear": "1880"
  },
  {
    "address": {
      "address": "Strada MIRCEA VULCANESCU",
      "Anul_construirii": "1917",
      "Numar de apartamente": "3",
      "Anul Elaborarii Expertizei Tehnice": "2022",
      "Observatii": "PV RecepTie la terminarea lucrArilor nr 1/17.02.2022 aprobat de PMB; Ministerul Culturii;"
    },
    "lat": 44.4428553,
    "lng": 26.0807486,
    "constructionYear": "1917"
  },
  {
    "address": {
      "address": "Strada MIRCEA VULCANESCU",
      "Anul_construirii": "1900",
      "Numar de apartamente": "8",
      "Anul Elaborarii Expertizei Tehnice": "1994",
      "Observatii": null
    },
    "lat": 44.4428553,
    "lng": 26.0807486,
    "constructionYear": "1900"
  },
  {
    "address": {
      "address": "Strada MIRCEA VULCANESCU",
      "Anul_construirii": "1930",
      "Numar de apartamente": "5",
      "Anul Elaborarii Expertizei Tehnice": "1996",
      "Observatii": null
    },
    "lat": 44.4428553,
    "lng": 26.0807486,
    "constructionYear": "1930"
  },
  {
    "address": {
      "address": "Strada MIRCEA VULCANESCU",
      "Anul_construirii": "1935",
      "Numar de apartamente": "5",
      "Anul Elaborarii Expertizei Tehnice": "1995",
      "Observatii": null
    },
    "lat": 44.4428553,
    "lng": 26.0807486,
    "constructionYear": "1935"
  },
  {
    "address": {
      "address": "Calea MOSILOR",
      "Anul_construirii": "1900",
      "Numar de apartamente": "11",
      "Anul Elaborarii Expertizei Tehnice": "1993",
      "Observatii": null
    },
    "lat": 44.4395424,
    "lng": 26.1156582,
    "constructionYear": "1900"
  },
  {
    "address": {
      "address": "Calea MOSILOR",
      "Anul_construirii": "1938",
      "Numar de apartamente": "29",
      "Anul Elaborarii Expertizei Tehnice": "1993",
      "Observatii": null
    },
    "lat": 44.4395424,
    "lng": 26.1156582,
    "constructionYear": "1938"
  },
  {
    "address": {
      "address": "Calea MOSILOR",
      "Anul_construirii": "1934",
      "Numar de apartamente": null,
      "Anul Elaborarii Expertizei Tehnice": "2019",
      "Observatii": "Reexpertizat tehnic in anul 2019"
    },
    "lat": 44.4395424,
    "lng": 26.1156582,
    "constructionYear": "1934"
  },
  {
    "address": {
      "address": "Calea MOSILOR",
      "Anul_construirii": "1890",
      "Numar de apartamente": null,
      "Anul Elaborarii Expertizei Tehnice": "2019",
      "Observatii": "Incadrat in CLASA RsI DE RISC SEISMIC in anul 2019"
    },
    "lat": 44.4395424,
    "lng": 26.1156582,
    "constructionYear": "1890"
  },
  {
    "address": {
      "address": "Calea MOSILOR",
      "Anul_construirii": "aprox. 1864",
      "Numar de apartamente": null,
      "Anul Elaborarii Expertizei Tehnice": "2019",
      "Observatii": null
    },
    "lat": 44.4395424,
    "lng": 26.1156582,
    "constructionYear": "aprox. 1864"
  },
  {
    "address": {
      "address": "Calea MOSILOR",
      "Anul_construirii": "aprox.1890",
      "Numar de apartamente": null,
      "Anul Elaborarii Expertizei Tehnice": "2019",
      "Observatii": "Reexpertizat tehnic in anul 2019"
    },
    "lat": 44.4395424,
    "lng": 26.1156582,
    "constructionYear": "aprox.1890"
  },
  {
    "address": {
      "address": "Calea MOSILOR",
      "Anul_construirii": "aprox.1894",
      "Numar de apartamente": null,
      "Anul Elaborarii Expertizei Tehnice": "2019",
      "Observatii": "Reexpertizat tehnic in anul 2019"
    },
    "lat": 44.4395424,
    "lng": 26.1156582,
    "constructionYear": "aprox.1894"
  },
  {
    "address": {
      "address": "Calea MOSILOR",
      "Anul_construirii": "inainte de 1880",
      "Numar de apartamente": null,
      "Anul Elaborarii Expertizei Tehnice": "2019",
      "Observatii": null
    },
    "lat": 44.4395424,
    "lng": 26.1156582,
    "constructionYear": "inainte de 1880"
  },
  {
    "address": {
      "address": "Calea MOSILOR",
      "Anul_construirii": "inainte de 1880",
      "Numar de apartamente": null,
      "Anul Elaborarii Expertizei Tehnice": "2019",
      "Observatii": null
    },
    "lat": 44.4395424,
    "lng": 26.1156582,
    "constructionYear": "inainte de 1880"
  },
  {
    "address": {
      "address": "Intrarea NESTOREL",
      "Anul_construirii": "1914",
      "Numar de apartamente": "1",
      "Anul Elaborarii Expertizei Tehnice": "1993",
      "Observatii": null
    },
    "lat": 44.4207904,
    "lng": 26.109824,
    "constructionYear": "1914"
  },
  {
    "address": {
      "address": "Bulevardul NICOLAE BALCESCU",
      "Anul_construirii": "1933",
      "Numar de apartamente": "15",
      "Anul Elaborarii Expertizei Tehnice": "1998",
      "Observatii": null
    },
    "lat": 44.4383005,
    "lng": 26.1009171,
    "constructionYear": "1933"
  },
  {
    "address": {
      "address": "Bulevardul NICOLAE BALCESCU",
      "Anul_construirii": "1936",
      "Numar de apartamente": "25",
      "Anul Elaborarii Expertizei Tehnice": "1999",
      "Observatii": null
    },
    "lat": 44.4383005,
    "lng": 26.1009171,
    "constructionYear": "1936"
  },
  {
    "address": {
      "address": "Bulevardul NICOLAE BALCESCU",
      "Anul_construirii": "1935",
      "Numar de apartamente": "45",
      "Anul Elaborarii Expertizei Tehnice": "2020",
      "Observatii": null
    },
    "lat": 44.4383005,
    "lng": 26.1009171,
    "constructionYear": "1935"
  },
  {
    "address": {
      "address": "Strada NICOLAE GOLESCU",
      "Anul_construirii": "1938",
      "Numar de apartamente": "21",
      "Anul Elaborarii Expertizei Tehnice": "1998",
      "Observatii": null
    },
    "lat": 44.4417698,
    "lng": 26.0975714,
    "constructionYear": "1938"
  },
  {
    "address": {
      "address": "Bulevardul NICOLAE GRIGORESCU (Centrul de Diagnostic si Tratament TITAN)",
      "Anul_construirii": "1971",
      "Numar de apartamente": "0",
      "Anul Elaborarii Expertizei Tehnice": "2019",
      "Observatii": null
    },
    "lat": 44.419223,
    "lng": 26.1646901,
    "constructionYear": "1971"
  },
  {
    "address": {
      "address": "Strada NICOLAE IORGA",
      "Anul_construirii": "1939",
      "Numar de apartamente": "31",
      "Anul Elaborarii Expertizei Tehnice": "1995",
      "Observatii": null
    },
    "lat": 44.4477216,
    "lng": 26.0921914,
    "constructionYear": "1939"
  },
  {
    "address": {
      "address": "Strada NICOLAE MAVROGHENI",
      "Anul_construirii": "1906",
      "Numar de apartamente": "1",
      "Anul Elaborarii Expertizei Tehnice": "1993",
      "Observatii": null
    },
    "lat": 44.4334946,
    "lng": 26.1040644,
    "constructionYear": "1906"
  },
  {
    "address": {
      "address": "Strada NICOLAE TONITZA",
      "Anul_construirii": "1901",
      "Numar de apartamente": "16",
      "Anul Elaborarii Expertizei Tehnice": "1993",
      "Observatii": null
    },
    "lat": 44.4302906,
    "lng": 26.098231,
    "constructionYear": "1901"
  },
  {
    "address": {
      "address": "Strada NICOLAE TONITZA",
      "Anul_construirii": "1940",
      "Numar de apartamente": "67",
      "Anul Elaborarii Expertizei Tehnice": "1993",
      "Observatii": null
    },
    "lat": 44.4302906,
    "lng": 26.098231,
    "constructionYear": "1940"
  },
  {
    "address": {
      "address": "Strada OSTASILOR",
      "Anul_construirii": "1927",
      "Numar de apartamente": "18",
      "Anul Elaborarii Expertizei Tehnice": "1997",
      "Observatii": null
    },
    "lat": 44.4373333,
    "lng": 26.0848181,
    "constructionYear": "1927"
  },
  {
    "address": {
      "address": "Bulevardul PACHE PROTOPOPESCU",
      "Anul_construirii": "1910",
      "Numar de apartamente": "1",
      "Anul Elaborarii Expertizei Tehnice": "1993",
      "Observatii": null
    },
    "lat": 44.4395834,
    "lng": 26.1243287,
    "constructionYear": "1910"
  },
  {
    "address": {
      "address": "Bulevardul PACHE PROTOPOPESCU",
      "Anul_construirii": "1940",
      "Numar de apartamente": "5",
      "Anul Elaborarii Expertizei Tehnice": "1993",
      "Observatii": null
    },
    "lat": 44.4395834,
    "lng": 26.1243287,
    "constructionYear": "1940"
  },
  {
    "address": {
      "address": "Bulevardul PACHE PROTOPOPESCU",
      "Anul_construirii": "1920",
      "Numar de apartamente": "7",
      "Anul Elaborarii Expertizei Tehnice": "1994",
      "Observatii": null
    },
    "lat": 44.4395834,
    "lng": 26.1243287,
    "constructionYear": "1920"
  },
  {
    "address": {
      "address": "PIATA PACHE PROTOPOPESCU",
      "Anul_construirii": "1935",
      "Numar de apartamente": "14",
      "Anul Elaborarii Expertizei Tehnice": "2022",
      "Observatii": "Expertizat u00een anul 1993 ing..Ion Lungu (RsI)."
    },
    "lat": 44.4378854,
    "lng": 26.1165237,
    "constructionYear": "1935"
  },
  {
    "address": {
      "address": "Bulevardul PACHE PROTOPOPESCU",
      "Anul_construirii": "1910",
      "Numar de apartamente": null,
      "Anul Elaborarii Expertizei Tehnice": "2019",
      "Observatii": null
    },
    "lat": 44.4395834,
    "lng": 26.1243287,
    "constructionYear": "1910"
  },
  {
    "address": {
      "address": "Soseaua PANDURI",
      "Anul_construirii": "1938",
      "Numar de apartamente": "11",
      "Anul Elaborarii Expertizei Tehnice": "2022",
      "Observatii": null
    },
    "lat": 44.4275919,
    "lng": 26.0661807,
    "constructionYear": "1938"
  },
  {
    "address": {
      "address": "Soseaua PANDURI (UNIVERSITATEA BUCURESTI u0096 Facultatea de Chimie)",
      "Anul_construirii": "1862u00f71926",
      "Numar de apartamente": "0",
      "Anul Elaborarii Expertizei Tehnice": "2015",
      "Observatii": "Incadrare in clasa de risc seismic in anul 2015"
    },
    "lat": 44.43010870000001,
    "lng": 26.06341,
    "constructionYear": "1862u00f71926"
  },
  {
    "address": {
      "address": "Strada PARINTELE STANILOAIE (fosta Strada CERNICA)",
      "Anul_construirii": "1921",
      "Numar de apartamente": "4",
      "Anul Elaborarii Expertizei Tehnice": "1993",
      "Observatii": null
    },
    "lat": 44.4351881,
    "lng": 26.1093255,
    "constructionYear": "1921"
  },
  {
    "address": {
      "address": "Strada PARIS",
      "Anul_construirii": "1930",
      "Numar de apartamente": null,
      "Anul Elaborarii Expertizei Tehnice": "2014",
      "Observatii": null
    },
    "lat": 44.4559743,
    "lng": 26.0900291,
    "constructionYear": "1930"
  },
  {
    "address": {
      "address": "Strada PATRASCU VODA",
      "Anul_construirii": "1850",
      "Numar de apartamente": "4",
      "Anul Elaborarii Expertizei Tehnice": "1993",
      "Observatii": null
    },
    "lat": 44.4332838,
    "lng": 26.1041124,
    "constructionYear": "1850"
  },
  {
    "address": {
      "address": "Strada PATRASCU VODA",
      "Anul_construirii": "1889",
      "Numar de apartamente": "3",
      "Anul Elaborarii Expertizei Tehnice": "1995",
      "Observatii": null
    },
    "lat": 44.4332838,
    "lng": 26.1041124,
    "constructionYear": "1889"
  },
  {
    "address": {
      "address": "Strada PATRASCU VODA",
      "Anul_construirii": "1890",
      "Numar de apartamente": "4",
      "Anul Elaborarii Expertizei Tehnice": "1993",
      "Observatii": null
    },
    "lat": 44.4332838,
    "lng": 26.1041124,
    "constructionYear": "1890"
  },
  {
    "address": {
      "address": "Strada PITAR MOS",
      "Anul_construirii": "1936",
      "Numar de apartamente": "26",
      "Anul Elaborarii Expertizei Tehnice": "1997",
      "Observatii": null
    },
    "lat": 44.4425913,
    "lng": 26.1008427,
    "constructionYear": "1936"
  },
  {
    "address": {
      "address": "Strada PITAR MOS",
      "Anul_construirii": "1936",
      "Numar de apartamente": "59",
      "Anul Elaborarii Expertizei Tehnice": "1997",
      "Observatii": null
    },
    "lat": 44.4425913,
    "lng": 26.1008427,
    "constructionYear": "1936"
  },
  {
    "address": {
      "address": "Strada PLANTELOR",
      "Anul_construirii": "A: inainte de 1930 B: dupa 1930",
      "Numar de apartamente": "5",
      "Anul Elaborarii Expertizei Tehnice": "2019",
      "Observatii": "Reexpertizat tehnic in anul 2019"
    },
    "lat": 44.4366215,
    "lng": 26.1177138,
    "constructionYear": "A: inainte de 1930 B: dupa 1930"
  },
  {
    "address": {
      "address": "Strada PLANTELOR",
      "Anul_construirii": "1895",
      "Numar de apartamente": "3",
      "Anul Elaborarii Expertizei Tehnice": "1993",
      "Observatii": "A.C.324/1454471/03.10.2017  P.V.T.R.L.nr. 1/16.11.2021"
    },
    "lat": 44.4366215,
    "lng": 26.1177138,
    "constructionYear": "1895"
  },
  {
    "address": {
      "address": "Calea PLEVNEI",
      "Anul_construirii": "1930",
      "Numar de apartamente": "52",
      "Anul Elaborarii Expertizei Tehnice": "1993",
      "Observatii": null
    },
    "lat": 44.4390004,
    "lng": 26.0757534,
    "constructionYear": "1930"
  },
  {
    "address": {
      "address": "Strada POENARU BORDEA",
      "Anul_construirii": "1937",
      "Numar de apartamente": "24",
      "Anul Elaborarii Expertizei Tehnice": "1994",
      "Observatii": null
    },
    "lat": 44.4282961,
    "lng": 26.0963014,
    "constructionYear": "1937"
  },
  {
    "address": {
      "address": "Strada POENARU BORDEA",
      "Anul_construirii": "1936",
      "Numar de apartamente": "30",
      "Anul Elaborarii Expertizei Tehnice": "1996",
      "Observatii": null
    },
    "lat": 44.4282961,
    "lng": 26.0963014,
    "constructionYear": "1936"
  },
  {
    "address": {
      "address": "Strada POIANA NARCISELOR",
      "Anul_construirii": "1929",
      "Numar de apartamente": "22",
      "Anul Elaborarii Expertizei Tehnice": "1995",
      "Observatii": null
    },
    "lat": 44.4392309,
    "lng": 26.0923415,
    "constructionYear": "1929"
  },
  {
    "address": {
      "address": "Strada POIANA NARCISELOR",
      "Anul_construirii": "1902",
      "Numar de apartamente": "17",
      "Anul Elaborarii Expertizei Tehnice": "1994",
      "Observatii": null
    },
    "lat": 44.4392309,
    "lng": 26.0923415,
    "constructionYear": "1902"
  },
  {
    "address": {
      "address": "Strada POLONA",
      "Anul_construirii": "1935",
      "Numar de apartamente": "9",
      "Anul Elaborarii Expertizei Tehnice": "1993",
      "Observatii": null
    },
    "lat": 44.4487742,
    "lng": 26.1029211,
    "constructionYear": "1935"
  },
  {
    "address": {
      "address": "Strada POPISTEANU",
      "Anul_construirii": "1938",
      "Numar de apartamente": "5",
      "Anul Elaborarii Expertizei Tehnice": "1993",
      "Observatii": null
    },
    "lat": 44.472064,
    "lng": 26.0563327,
    "constructionYear": "1938"
  },
  {
    "address": {
      "address": "Strada PRECUPETII VECHI",
      "Anul_construirii": "1900",
      "Numar de apartamente": "0",
      "Anul Elaborarii Expertizei Tehnice": "2016",
      "Observatii": "Incadrare in clasa de risc seismic in anul 2016"
    },
    "lat": 44.4476982,
    "lng": 26.1181156,
    "constructionYear": "1900"
  },
  {
    "address": {
      "address": "Strada RADU CALOMFIRESCU",
      "Anul_construirii": "1933",
      "Numar de apartamente": "8",
      "Anul Elaborarii Expertizei Tehnice": "1995",
      "Observatii": null
    },
    "lat": 44.4323896,
    "lng": 26.1077388,
    "constructionYear": "1933"
  },
  {
    "address": {
      "address": "Strada RADU CALOMFIRESCU",
      "Anul_construirii": "1890",
      "Numar de apartamente": "11",
      "Anul Elaborarii Expertizei Tehnice": "1993",
      "Observatii": null
    },
    "lat": 44.4323896,
    "lng": 26.1077388,
    "constructionYear": "1890"
  },
  {
    "address": {
      "address": "Strada RADU CALOMFIRESCU",
      "Anul_construirii": "1890",
      "Numar de apartamente": "5",
      "Anul Elaborarii Expertizei Tehnice": "1993",
      "Observatii": null
    },
    "lat": 44.4323896,
    "lng": 26.1077388,
    "constructionYear": "1890"
  },
  {
    "address": {
      "address": "Strada RADU CRISTIAN",
      "Anul_construirii": "1900",
      "Numar de apartamente": "5",
      "Anul Elaborarii Expertizei Tehnice": "1993",
      "Observatii": null
    },
    "lat": 44.435553,
    "lng": 26.1070375,
    "constructionYear": "1900"
  },
  {
    "address": {
      "address": "Strada RADU CRISTIAN",
      "Anul_construirii": "1899",
      "Numar de apartamente": "5",
      "Anul Elaborarii Expertizei Tehnice": "1993",
      "Observatii": null
    },
    "lat": 44.435553,
    "lng": 26.1070375,
    "constructionYear": "1899"
  },
  {
    "address": {
      "address": "Strada RADU CRISTIAN",
      "Anul_construirii": "1930",
      "Numar de apartamente": "10",
      "Anul Elaborarii Expertizei Tehnice": "1993",
      "Observatii": null
    },
    "lat": 44.435553,
    "lng": 26.1070375,
    "constructionYear": "1930"
  },
  {
    "address": {
      "address": "Strada RADU DE LA AFUMATI",
      "Anul_construirii": "1910",
      "Numar de apartamente": "6",
      "Anul Elaborarii Expertizei Tehnice": "1993",
      "Observatii": null
    },
    "lat": 44.450354,
    "lng": 26.1163713,
    "constructionYear": "1910"
  },
  {
    "address": {
      "address": "Strada RADU DE LA AFUMATI",
      "Anul_construirii": "1915",
      "Numar de apartamente": "5",
      "Anul Elaborarii Expertizei Tehnice": "1993",
      "Observatii": null
    },
    "lat": 44.450354,
    "lng": 26.1163713,
    "constructionYear": "1915"
  },
  {
    "address": {
      "address": "Calea RAHOVEI",
      "Anul_construirii": "1894",
      "Numar de apartamente": "27",
      "Anul Elaborarii Expertizei Tehnice": "1993",
      "Observatii": null
    },
    "lat": 44.4148109,
    "lng": 26.07701,
    "constructionYear": "1894"
  },
  {
    "address": {
      "address": "Bulevardul REGINA MARIA",
      "Anul_construirii": "1900",
      "Numar de apartamente": "12",
      "Anul Elaborarii Expertizei Tehnice": "1993",
      "Observatii": null
    },
    "lat": 44.4239978,
    "lng": 26.0953821,
    "constructionYear": "1900"
  },
  {
    "address": {
      "address": "Bulevardul REGINA ELISABETA (fost Bulevardul MIHAIL KOGALNICEANU)",
      "Anul_construirii": "1934",
      "Numar de apartamente": "40",
      "Anul Elaborarii Expertizei Tehnice": "1997",
      "Observatii": null
    },
    "lat": 44.4346988,
    "lng": 26.0956299,
    "constructionYear": "1934"
  },
  {
    "address": {
      "address": "Bulevardul REGINA ELISABETA (fost Bulevardul MIHAIL KOGALNICEANU)",
      "Anul_construirii": "1875",
      "Numar de apartamente": "0",
      "Anul Elaborarii Expertizei Tehnice": "1993",
      "Observatii": "U3"
    },
    "lat": 44.4346988,
    "lng": 26.0956299,
    "constructionYear": "1875"
  },
  {
    "address": {
      "address": "Bulevardul REGINA ELISABETA (fost Bulevardul MIHAIL KOGALNICEANU)",
      "Anul_construirii": "1880",
      "Numar de apartamente": "0",
      "Anul Elaborarii Expertizei Tehnice": "1993",
      "Observatii": "U2"
    },
    "lat": 44.4346988,
    "lng": 26.0956299,
    "constructionYear": "1880"
  },
  {
    "address": {
      "address": "Bulevardul REGINA ELISABETA (fost Bulevardul MIHAIL KOGALNICEANU)",
      "Anul_construirii": "1900",
      "Numar de apartamente": "0",
      "Anul Elaborarii Expertizei Tehnice": "1993",
      "Observatii": "U3"
    },
    "lat": 44.4346988,
    "lng": 26.0956299,
    "constructionYear": "1900"
  },
  {
    "address": {
      "address": "Bulevardul REGINA MARIA",
      "Anul_construirii": "1900",
      "Numar de apartamente": "5",
      "Anul Elaborarii Expertizei Tehnice": "1993",
      "Observatii": null
    },
    "lat": 44.4239978,
    "lng": 26.0953821,
    "constructionYear": "1900"
  },
  {
    "address": {
      "address": "Bulevardul REGINA MARIA",
      "Anul_construirii": "1900",
      "Numar de apartamente": "5",
      "Anul Elaborarii Expertizei Tehnice": "2012",
      "Observatii": null
    },
    "lat": 44.4239978,
    "lng": 26.0953821,
    "constructionYear": "1900"
  },
  {
    "address": {
      "address": "PIATA ROMANA",
      "Anul_construirii": "1907",
      "Numar de apartamente": "4",
      "Anul Elaborarii Expertizei Tehnice": "2023",
      "Observatii": null
    },
    "lat": 44.44583799999999,
    "lng": 26.0972776,
    "constructionYear": "1907"
  },
  {
    "address": {
      "address": "PIATA ROMANA (u0093LIBRARIA COPIILORu0094)",
      "Anul_construirii": "1959u00f71960",
      "Numar de apartamente": "156",
      "Anul Elaborarii Expertizei Tehnice": "2016",
      "Observatii": null
    },
    "lat": 44.4317033,
    "lng": 26.1031839,
    "constructionYear": "1959u00f71960"
  },
  {
    "address": {
      "address": "Strada ROMULUS",
      "Anul_construirii": "1930",
      "Numar de apartamente": "8",
      "Anul Elaborarii Expertizei Tehnice": "1993",
      "Observatii": null
    },
    "lat": 44.4313541,
    "lng": 26.1146106,
    "constructionYear": "1930"
  },
  {
    "address": {
      "address": "Strada RONDA",
      "Anul_construirii": "1900",
      "Numar de apartamente": "3",
      "Anul Elaborarii Expertizei Tehnice": "1997",
      "Observatii": null
    },
    "lat": 44.4367446,
    "lng": 26.1258531,
    "constructionYear": "1900"
  },
  {
    "address": {
      "address": "Strada SABINELOR",
      "Anul_construirii": "1900",
      "Numar de apartamente": "8",
      "Anul Elaborarii Expertizei Tehnice": "1993",
      "Observatii": null
    },
    "lat": 44.4221732,
    "lng": 26.0801777,
    "constructionYear": "1900"
  },
  {
    "address": {
      "address": "Strada SAPIENTEI",
      "Anul_construirii": "1930",
      "Numar de apartamente": "15",
      "Anul Elaborarii Expertizei Tehnice": "1995",
      "Observatii": null
    },
    "lat": 44.4313062,
    "lng": 26.0931623,
    "constructionYear": "1930"
  },
  {
    "address": {
      "address": "Strada SAPIENTEI",
      "Anul_construirii": "1936",
      "Numar de apartamente": "5",
      "Anul Elaborarii Expertizei Tehnice": "1993",
      "Observatii": null
    },
    "lat": 44.4313062,
    "lng": 26.0931623,
    "constructionYear": "1936"
  },
  {
    "address": {
      "address": "Strada SCARLAT VARNAV",
      "Anul_construirii": "1927",
      "Numar de apartamente": "4",
      "Anul Elaborarii Expertizei Tehnice": "2010",
      "Observatii": null
    },
    "lat": 44.2409825,
    "lng": 28.2734505,
    "constructionYear": "1927"
  },
  {
    "address": {
      "address": "Bulevardul SCHITU MAGUREANU",
      "Anul_construirii": "1898-1900",
      "Numar de apartamente": "31",
      "Anul Elaborarii Expertizei Tehnice": "2021",
      "Observatii": null
    },
    "lat": 44.4369639,
    "lng": 26.0884041,
    "constructionYear": "1898-1900"
  },
  {
    "address": {
      "address": "Bulevardul SCHITU MAGUREANU",
      "Anul_construirii": "1930",
      "Numar de apartamente": "14",
      "Anul Elaborarii Expertizei Tehnice": "1997",
      "Observatii": "CONSOLIDAT PARTIAL !"
    },
    "lat": 44.4369639,
    "lng": 26.0884041,
    "constructionYear": "1930"
  },
  {
    "address": {
      "address": "Intrarea SECTORULUI",
      "Anul_construirii": "1950",
      "Numar de apartamente": "1",
      "Anul Elaborarii Expertizei Tehnice": "2012",
      "Observatii": "Incadrare in clasa de risc seismic in anul 2012"
    },
    "lat": 44.4306774,
    "lng": 26.1411614,
    "constructionYear": "1950"
  },
  {
    "address": {
      "address": "Strada SELARI",
      "Anul_construirii": "aprox.1882",
      "Numar de apartamente": null,
      "Anul Elaborarii Expertizei Tehnice": "2019",
      "Observatii": "Reexpertizat tehnic in anul 2019"
    },
    "lat": 44.4305198,
    "lng": 26.1006506,
    "constructionYear": "aprox.1882"
  },
  {
    "address": {
      "address": "Strada SEMILUNEI",
      "Anul_construirii": "1935",
      "Numar de apartamente": "20",
      "Anul Elaborarii Expertizei Tehnice": "1999",
      "Observatii": null
    },
    "lat": 44.439018,
    "lng": 26.1131209,
    "constructionYear": "1935"
  },
  {
    "address": {
      "address": "Strada SEPCARI",
      "Anul_construirii": "1890",
      "Numar de apartamente": "2",
      "Anul Elaborarii Expertizei Tehnice": "1993",
      "Observatii": null
    },
    "lat": 44.4303035,
    "lng": 26.1027002,
    "constructionYear": "1890"
  },
  {
    "address": {
      "address": "Calea SERBAN VODA",
      "Anul_construirii": "1934",
      "Numar de apartamente": "5",
      "Anul Elaborarii Expertizei Tehnice": "1997",
      "Observatii": null
    },
    "lat": 44.4157143,
    "lng": 26.1015992,
    "constructionYear": "1934"
  },
  {
    "address": {
      "address": "Calea SERBAN VODA",
      "Anul_construirii": "1934",
      "Numar de apartamente": "9",
      "Anul Elaborarii Expertizei Tehnice": "1997",
      "Observatii": null
    },
    "lat": 44.4157143,
    "lng": 26.1015992,
    "constructionYear": "1934"
  },
  {
    "address": {
      "address": "Calea SERBAN VODA",
      "Anul_construirii": "1915",
      "Numar de apartamente": "9",
      "Anul Elaborarii Expertizei Tehnice": "2019",
      "Observatii": "Incadrare in clasa de risc seismic in anul 2019"
    },
    "lat": 44.4157143,
    "lng": 26.1015992,
    "constructionYear": "1915"
  },
  {
    "address": {
      "address": "Calea SERBAN VODA",
      "Anul_construirii": "7309",
      "Numar de apartamente": null,
      "Anul Elaborarii Expertizei Tehnice": "2019",
      "Observatii": "Reexpertizat tehnic in anul 2019; Reexpertizat tehnic u00een anul 2022."
    },
    "lat": 44.4157143,
    "lng": 26.1015992,
    "constructionYear": "7309"
  },
  {
    "address": {
      "address": "Strada SFANTA VINERI",
      "Anul_construirii": "1933",
      "Numar de apartamente": "12",
      "Anul Elaborarii Expertizei Tehnice": "1993",
      "Observatii": null
    },
    "lat": 44.4299269,
    "lng": 26.107361,
    "constructionYear": "1933"
  },
  {
    "address": {
      "address": "Strada SFANTA VINERI",
      "Anul_construirii": "4",
      "Numar de apartamente": null,
      "Anul Elaborarii Expertizei Tehnice": "2019",
      "Observatii": null
    },
    "lat": 44.4299269,
    "lng": 26.107361,
    "constructionYear": "4"
  },
  {
    "address": {
      "address": "Strada SFANTUL CONSTANTIN",
      "Anul_construirii": "1890",
      "Numar de apartamente": "5",
      "Anul Elaborarii Expertizei Tehnice": "2014",
      "Observatii": "Incadrare in clasa de risc seismic in anul 2014"
    },
    "lat": 44.4361738,
    "lng": 26.086734,
    "constructionYear": "1890"
  },
  {
    "address": {
      "address": "Strada SFANTUL CONSTANTIN",
      "Anul_construirii": "1939",
      "Numar de apartamente": "5",
      "Anul Elaborarii Expertizei Tehnice": "1994",
      "Observatii": null
    },
    "lat": 44.4361738,
    "lng": 26.086734,
    "constructionYear": "1939"
  },
  {
    "address": {
      "address": "Strada SFINTII APOSTOLI",
      "Anul_construirii": "1939",
      "Numar de apartamente": "8",
      "Anul Elaborarii Expertizei Tehnice": "1994",
      "Observatii": null
    },
    "lat": 44.4277407,
    "lng": 26.0968021,
    "constructionYear": "1939"
  },
  {
    "address": {
      "address": "Strada SFINTILOR",
      "Anul_construirii": "4",
      "Numar de apartamente": "5",
      "Anul Elaborarii Expertizei Tehnice": "2022",
      "Observatii": "Reexpertizat tehnic in anul 2019;Reexpertizat u00een anul 2019 -Cu0103tu0103lin u0218tefan RSI."
    },
    "lat": 44.435377,
    "lng": 26.1079186,
    "constructionYear": "4"
  },
  {
    "address": {
      "address": "Strada SIPOTUL FANTANILOR",
      "Anul_construirii": "1948",
      "Numar de apartamente": "21",
      "Anul Elaborarii Expertizei Tehnice": "2022",
      "Observatii": "Reexpertizat tehnic in anul 2019"
    },
    "lat": 44.4386501,
    "lng": 26.0920613,
    "constructionYear": "1948"
  },
  {
    "address": {
      "address": "Intrarea SLOBOZIA",
      "Anul_construirii": "1890; 1940",
      "Numar de apartamente": "1",
      "Anul Elaborarii Expertizei Tehnice": "1993",
      "Observatii": null
    },
    "lat": 44.4193974,
    "lng": 26.090928,
    "constructionYear": "1890; 1940"
  },
  {
    "address": {
      "address": "Strada SMARDAN",
      "Anul_construirii": "1910",
      "Numar de apartamente": "0",
      "Anul Elaborarii Expertizei Tehnice": "1993",
      "Observatii": "Incadrare in clasa de risc seismic in anul 2014"
    },
    "lat": 44.431853,
    "lng": 26.0998283,
    "constructionYear": "1910"
  },
  {
    "address": {
      "address": "Strada SPATARULUI",
      "Anul_construirii": "1935",
      "Numar de apartamente": "17",
      "Anul Elaborarii Expertizei Tehnice": "1993",
      "Observatii": null
    },
    "lat": 44.4391137,
    "lng": 26.1131936,
    "constructionYear": "1935"
  },
  {
    "address": {
      "address": "Strada SPATARULUI",
      "Anul_construirii": "1933",
      "Numar de apartamente": "11",
      "Anul Elaborarii Expertizei Tehnice": "1993",
      "Observatii": "Imobil consolidat In baza AC nr. 138/332/03.05.2018  Si a PVRTL nr.892/08.02.2022"
    },
    "lat": 44.4391137,
    "lng": 26.1131936,
    "constructionYear": "1933"
  },
  {
    "address": {
      "address": "Strada SPATARULUI",
      "Anul_construirii": "1930",
      "Numar de apartamente": null,
      "Anul Elaborarii Expertizei Tehnice": "2019",
      "Observatii": "Reexpertizat tehnic in anul 2019"
    },
    "lat": 44.4391137,
    "lng": 26.1131936,
    "constructionYear": "1930"
  },
  {
    "address": {
      "address": "Soseaua STEFAN CEL MARE",
      "Anul_construirii": "1963",
      "Numar de apartamente": "33",
      "Anul Elaborarii Expertizei Tehnice": "1993; 1997",
      "Observatii": null
    },
    "lat": 44.4528023,
    "lng": 26.1117839,
    "constructionYear": "1963"
  },
  {
    "address": {
      "address": "Strada STEFAN LUCHIAN",
      "Anul_construirii": "1935",
      "Numar de apartamente": "19",
      "Anul Elaborarii Expertizei Tehnice": "1993",
      "Observatii": null
    },
    "lat": 46.7515153,
    "lng": 23.6024803,
    "constructionYear": "1935"
  },
  {
    "address": {
      "address": "Strada STEFAN LUCHIAN",
      "Anul_construirii": "1933",
      "Numar de apartamente": "11",
      "Anul Elaborarii Expertizei Tehnice": "1993",
      "Observatii": "CONSOLIDAT PARTIAL !"
    },
    "lat": 46.7515153,
    "lng": 23.6024803,
    "constructionYear": "1933"
  },
  {
    "address": {
      "address": "Strada STEFAN MIHAILEANU",
      "Anul_construirii": "1940",
      "Numar de apartamente": "6",
      "Anul Elaborarii Expertizei Tehnice": "1993",
      "Observatii": null
    },
    "lat": 44.4360742,
    "lng": 26.1191344,
    "constructionYear": "1940"
  },
  {
    "address": {
      "address": "Strada STELEA SPATARU",
      "Anul_construirii": "1937",
      "Numar de apartamente": "52",
      "Anul Elaborarii Expertizei Tehnice": "1994",
      "Observatii": null
    },
    "lat": 44.4314762,
    "lng": 26.1070929,
    "constructionYear": "1937"
  },
  {
    "address": {
      "address": "Strada STIRBEI VODA",
      "Anul_construirii": "1934",
      "Numar de apartamente": "23",
      "Anul Elaborarii Expertizei Tehnice": "1994",
      "Observatii": null
    },
    "lat": 44.4400951,
    "lng": 26.0855167,
    "constructionYear": "1934"
  },
  {
    "address": {
      "address": "Strada STIRBEI VODA",
      "Anul_construirii": "1935",
      "Numar de apartamente": "33",
      "Anul Elaborarii Expertizei Tehnice": "2001",
      "Observatii": null
    },
    "lat": 44.4400951,
    "lng": 26.0855167,
    "constructionYear": "1935"
  },
  {
    "address": {
      "address": "Strada STIRBEI VODA",
      "Anul_construirii": "1936",
      "Numar de apartamente": "6",
      "Anul Elaborarii Expertizei Tehnice": "2010",
      "Observatii": null
    },
    "lat": 44.4400951,
    "lng": 26.0855167,
    "constructionYear": "1936"
  },
  {
    "address": {
      "address": "Strada STIRBEI VODA",
      "Anul_construirii": "1935",
      "Numar de apartamente": "6",
      "Anul Elaborarii Expertizei Tehnice": "1994",
      "Observatii": null
    },
    "lat": 44.4400951,
    "lng": 26.0855167,
    "constructionYear": "1935"
  },
  {
    "address": {
      "address": "Strada Str.Roma ( colT cu Intrarea Roma)",
      "Anul_construirii": "1936-1937",
      "Numar de apartamente": "4",
      "Anul Elaborarii Expertizei Tehnice": "2020",
      "Observatii": null
    },
    "lat": 41.9027835,
    "lng": 12.4963655,
    "constructionYear": "1936-1937"
  },
  {
    "address": {
      "address": "Drumul TABEREI",
      "Anul_construirii": "1964",
      "Numar de apartamente": "180",
      "Anul Elaborarii Expertizei Tehnice": "2017",
      "Observatii": null
    },
    "lat": 44.4213403,
    "lng": 26.0344852,
    "constructionYear": "1964"
  },
  {
    "address": {
      "address": "Strada TACHE IONESCU",
      "Anul_construirii": "1935",
      "Numar de apartamente": "19",
      "Anul Elaborarii Expertizei Tehnice": "1993",
      "Observatii": null
    },
    "lat": 44.4444611,
    "lng": 26.0978994,
    "constructionYear": "1935"
  },
  {
    "address": {
      "address": "Strada TEPES VODA",
      "Anul_construirii": "1930",
      "Numar de apartamente": "9",
      "Anul Elaborarii Expertizei Tehnice": "1993",
      "Observatii": null
    },
    "lat": 44.4355302,
    "lng": 26.1292424,
    "constructionYear": "1930"
  },
  {
    "address": {
      "address": "Strada TITU MAIORESCU",
      "Anul_construirii": "1925",
      "Numar de apartamente": "8",
      "Anul Elaborarii Expertizei Tehnice": "1993",
      "Observatii": null
    },
    "lat": 44.4459752,
    "lng": 26.1250015,
    "constructionYear": "1925"
  },
  {
    "address": {
      "address": "Strada TUDOR ARGHEZI",
      "Anul_construirii": "1924",
      "Numar de apartamente": "19",
      "Anul Elaborarii Expertizei Tehnice": "1996",
      "Observatii": null
    },
    "lat": 44.4390025,
    "lng": 26.103686,
    "constructionYear": "1924"
  },
  {
    "address": {
      "address": "Splaiul UNIRII",
      "Anul_construirii": "1908",
      "Numar de apartamente": "2",
      "Anul Elaborarii Expertizei Tehnice": "1993",
      "Observatii": null
    },
    "lat": 44.3989838,
    "lng": 26.1615123,
    "constructionYear": "1908"
  },
  {
    "address": {
      "address": "Splaiul UNIRII",
      "Anul_construirii": "1936",
      "Numar de apartamente": "5",
      "Anul Elaborarii Expertizei Tehnice": "1993",
      "Observatii": null
    },
    "lat": 44.3989838,
    "lng": 26.1615123,
    "constructionYear": "1936"
  },
  {
    "address": {
      "address": "Splaiul UNIRII",
      "Anul_construirii": "1900",
      "Numar de apartamente": "2",
      "Anul Elaborarii Expertizei Tehnice": "1993",
      "Observatii": null
    },
    "lat": 44.3989838,
    "lng": 26.1615123,
    "constructionYear": "1900"
  },
  {
    "address": {
      "address": "Strada VANATORI",
      "Anul_construirii": "1936",
      "Numar de apartamente": "17",
      "Anul Elaborarii Expertizei Tehnice": "2012",
      "Observatii": "Incadrare in clasa de risc seismic in anul 2012"
    },
    "lat": 44.4291976,
    "lng": 26.0942008,
    "constructionYear": "1936"
  },
  {
    "address": {
      "address": "Strada VANATORI",
      "Anul_construirii": "1891",
      "Numar de apartamente": "19",
      "Anul Elaborarii Expertizei Tehnice": "1995",
      "Observatii": null
    },
    "lat": 44.4291976,
    "lng": 26.0942008,
    "constructionYear": "1891"
  },
  {
    "address": {
      "address": "Strada VANATORI",
      "Anul_construirii": "1938",
      "Numar de apartamente": "8",
      "Anul Elaborarii Expertizei Tehnice": "1995",
      "Observatii": null
    },